[
  {
    "id": 31470,
    "name": "’Aïn Benian",
    "state_id": 1115,
    "state_code": "42",
    "country_id": 4,
    "country_code": "DZ",
    "latitude": "36.80277000",
    "longitude": "2.92185000",
    "native": null,
    "timezone": "Africa/Algiers",
    "translations": {}
  },
  {
    "id": 31255,
    "name": "Baraki",
    "state_id": 1115,
    "state_code": "42",
    "country_id": 4,
    "country_code": "DZ",
    "latitude": "36.66655000",
    "longitude": "3.09606000",
    "native": null,
    "timezone": "Africa/Algiers",
    "translations": {}
  },
  {
    "id": 31283,
    "name": "Bou Ismaïl",
    "state_id": 1115,
    "state_code": "42",
    "country_id": 4,
    "country_code": "DZ",
    "latitude": "36.64262000",
    "longitude": "2.69007000",
    "native": null,
    "timezone": "Africa/Algiers",
    "translations": {}
  },
  {
    "id": 31304,
    "name": "Cheraga",
    "state_id": 1115,
    "state_code": "42",
    "country_id": 4,
    "country_code": "DZ",
    "latitude": "36.76775000",
    "longitude": "2.95924000",
    "native": null,
    "timezone": "Africa/Algiers",
    "translations": {}
  },
  {
    "id": 31320,
    "name": "Douera",
    "state_id": 1115,
    "state_code": "42",
    "country_id": 4,
    "country_code": "DZ",
    "latitude": "36.67000000",
    "longitude": "2.94444000",
    "native": null,
    "timezone": "Africa/Algiers",
    "translations": {}
  },
  {
    "id": 31328,
    "name": "El Affroun",
    "state_id": 1115,
    "state_code": "42",
    "country_id": 4,
    "country_code": "DZ",
    "latitude": "36.47010000",
    "longitude": "2.62528000",
    "native": null,
    "timezone": "Africa/Algiers",
    "translations": {}
  },
  {
    "id": 31349,
    "name": "Hadjout",
    "state_id": 1115,
    "state_code": "42",
    "country_id": 4,
    "country_code": "DZ",
    "latitude": "36.51257000",
    "longitude": "2.41382000",
    "native": null,
    "timezone": "Africa/Algiers",
    "translations": {}
  },
  {
    "id": 31364,
    "name": "Kolea",
    "state_id": 1115,
    "state_code": "42",
    "country_id": 4,
    "country_code": "DZ",
    "latitude": "36.63888000",
    "longitude": "2.76845000",
    "native": null,
    "timezone": "Africa/Algiers",
    "translations": {}
  },
  {
    "id": 31389,
    "name": "Mouzaïa",
    "state_id": 1115,
    "state_code": "42",
    "country_id": 4,
    "country_code": "DZ",
    "latitude": "36.46695000",
    "longitude": "2.68991000",
    "native": null,
    "timezone": "Africa/Algiers",
    "translations": {}
  },
  {
    "id": 31401,
    "name": "Oued el Alleug",
    "state_id": 1115,
    "state_code": "42",
    "country_id": 4,
    "country_code": "DZ",
    "latitude": "36.55528000",
    "longitude": "2.79028000",
    "native": null,
    "timezone": "Africa/Algiers",
    "translations": {}
  },
  {
    "id": 31418,
    "name": "Saoula",
    "state_id": 1115,
    "state_code": "42",
    "country_id": 4,
    "country_code": "DZ",
    "latitude": "36.70456000",
    "longitude": "3.02462000",
    "native": null,
    "timezone": "Africa/Algiers",
    "translations": {}
  },
  {
    "id": 31453,
    "name": "Tipasa",
    "state_id": 1115,
    "state_code": "42",
    "country_id": 4,
    "country_code": "DZ",
    "latitude": "36.58972000",
    "longitude": "2.44750000",
    "native": null,
    "timezone": "Africa/Algiers",
    "translations": {}
  },
  {
    "id": 31465,
    "name": "Zeralda",
    "state_id": 1115,
    "state_code": "42",
    "country_id": 4,
    "country_code": "DZ",
    "latitude": "36.71169000",
    "longitude": "2.84244000",
    "native": null,
    "timezone": "Africa/Algiers",
    "translations": {}
  }
]