[
  {
    "id": 1602,
    "name": "Absdorf",
    "state_id": 2065,
    "state_code": "3",
    "country_id": 15,
    "country_code": "AT",
    "latitude": "48.40021000",
    "longitude": "15.97874000",
    "native": null,
    "timezone": "Europe/Vienna",
    "translations": {}
  },
  {
    "id": 1606,
    "name": "Achau",
    "state_id": 2065,
    "state_code": "3",
    "country_id": 15,
    "country_code": "AT",
    "latitude": "48.08026000",
    "longitude": "16.38611000",
    "native": null,
    "timezone": "Europe/Vienna",
    "translations": {}
  },
  {
    "id": 1608,
    "name": "Aderklaa",
    "state_id": 2065,
    "state_code": "3",
    "country_id": 15,
    "country_code": "AT",
    "latitude": "48.28333000",
    "longitude": "16.53333000",
    "native": null,
    "timezone": "Europe/Vienna",
    "translations": {}
  },
  {
    "id": 1614,
    "name": "Aggsbach",
    "state_id": 2065,
    "state_code": "3",
    "country_id": 15,
    "country_code": "AT",
    "latitude": "48.29404000",
    "longitude": "15.40382000",
    "native": null,
    "timezone": "Europe/Vienna",
    "translations": {}
  },
  {
    "id": 1627,
    "name": "Alland",
    "state_id": 2065,
    "state_code": "3",
    "country_id": 15,
    "country_code": "AT",
    "latitude": "48.05829000",
    "longitude": "16.07901000",
    "native": null,
    "timezone": "Europe/Vienna",
    "translations": {}
  },
  {
    "id": 1628,
    "name": "Allentsteig",
    "state_id": 2065,
    "state_code": "3",
    "country_id": 15,
    "country_code": "AT",
    "latitude": "48.69725000",
    "longitude": "15.32756000",
    "native": null,
    "timezone": "Europe/Vienna",
    "translations": {}
  },
  {
    "id": 1633,
    "name": "Allhartsberg",
    "state_id": 2065,
    "state_code": "3",
    "country_id": 15,
    "country_code": "AT",
    "latitude": "48.02633000",
    "longitude": "14.79009000",
    "native": null,
    "timezone": "Europe/Vienna",
    "translations": {}
  },
  {
    "id": 1638,
    "name": "Altenburg",
    "state_id": 2065,
    "state_code": "3",
    "country_id": 15,
    "country_code": "AT",
    "latitude": "48.64765000",
    "longitude": "15.59295000",
    "native": null,
    "timezone": "Europe/Vienna",
    "translations": {}
  },
  {
    "id": 1639,
    "name": "Altendorf",
    "state_id": 2065,
    "state_code": "3",
    "country_id": 15,
    "country_code": "AT",
    "latitude": "47.65000000",
    "longitude": "16.01667000",
    "native": null,
    "timezone": "Europe/Vienna",
    "translations": {}
  },
  {
    "id": 1641,
    "name": "Altenmarkt an der Triesting",
    "state_id": 2065,
    "state_code": "3",
    "country_id": 15,
    "country_code": "AT",
    "latitude": "48.01553000",
    "longitude": "15.99661000",
    "native": null,
    "timezone": "Europe/Vienna",
    "translations": {}
  },
  {
    "id": 1647,
    "name": "Altlengbach",
    "state_id": 2065,
    "state_code": "3",
    "country_id": 15,
    "country_code": "AT",
    "latitude": "48.15355000",
    "longitude": "15.92606000",
    "native": null,
    "timezone": "Europe/Vienna",
    "translations": {}
  },
  {
    "id": 1649,
    "name": "Altlichtenwarth",
    "state_id": 2065,
    "state_code": "3",
    "country_id": 15,
    "country_code": "AT",
    "latitude": "48.64442000",
    "longitude": "16.79664000",
    "native": null,
    "timezone": "Europe/Vienna",
    "translations": {}
  },
  {
    "id": 1650,
    "name": "Altmelon",
    "state_id": 2065,
    "state_code": "3",
    "country_id": 15,
    "country_code": "AT",
    "latitude": "48.46222000",
    "longitude": "14.96552000",
    "native": null,
    "timezone": "Europe/Vienna",
    "translations": {}
  },
  {
    "id": 1656,
    "name": "Amstetten",
    "state_id": 2065,
    "state_code": "3",
    "country_id": 15,
    "country_code": "AT",
    "latitude": "48.12290000",
    "longitude": "14.87206000",
    "native": null,
    "timezone": "Europe/Vienna",
    "translations": {}
  },
  {
    "id": 1659,
    "name": "Andlersdorf",
    "state_id": 2065,
    "state_code": "3",
    "country_id": 15,
    "country_code": "AT",
    "latitude": "48.18333000",
    "longitude": "16.66667000",
    "native": null,
    "timezone": "Europe/Vienna",
    "translations": {}
  },
  {
    "id": 1666,
    "name": "Angern an der March",
    "state_id": 2065,
    "state_code": "3",
    "country_id": 15,
    "country_code": "AT",
    "latitude": "48.37778000",
    "longitude": "16.82806000",
    "native": null,
    "timezone": "Europe/Vienna",
    "translations": {}
  },
  {
    "id": 1675,
    "name": "Arbesbach",
    "state_id": 2065,
    "state_code": "3",
    "country_id": 15,
    "country_code": "AT",
    "latitude": "48.49337000",
    "longitude": "14.95308000",
    "native": null,
    "timezone": "Europe/Vienna",
    "translations": {}
  },
  {
    "id": 1676,
    "name": "Ardagger Stift",
    "state_id": 2065,
    "state_code": "3",
    "country_id": 15,
    "country_code": "AT",
    "latitude": "48.15000000",
    "longitude": "14.83333000",
    "native": null,
    "timezone": "Europe/Vienna",
    "translations": {}
  },
  {
    "id": 1689,
    "name": "Aschbach Markt",
    "state_id": 2065,
    "state_code": "3",
    "country_id": 15,
    "country_code": "AT",
    "latitude": "48.07234000",
    "longitude": "14.75395000",
    "native": null,
    "timezone": "Europe/Vienna",
    "translations": {}
  },
  {
    "id": 1690,
    "name": "Aspang Markt",
    "state_id": 2065,
    "state_code": "3",
    "country_id": 15,
    "country_code": "AT",
    "latitude": "47.55000000",
    "longitude": "16.08333000",
    "native": null,
    "timezone": "Europe/Vienna",
    "translations": {}
  },
  {
    "id": 1691,
    "name": "Asparn an der Zaya",
    "state_id": 2065,
    "state_code": "3",
    "country_id": 15,
    "country_code": "AT",
    "latitude": "48.58333000",
    "longitude": "16.50000000",
    "native": null,
    "timezone": "Europe/Vienna",
    "translations": {}
  },
  {
    "id": 1692,
    "name": "Asperhofen",
    "state_id": 2065,
    "state_code": "3",
    "country_id": 15,
    "country_code": "AT",
    "latitude": "48.24583000",
    "longitude": "15.92606000",
    "native": null,
    "timezone": "Europe/Vienna",
    "translations": {}
  },
  {
    "id": 1699,
    "name": "Atzenbrugg",
    "state_id": 2065,
    "state_code": "3",
    "country_id": 15,
    "country_code": "AT",
    "latitude": "48.29119000",
    "longitude": "15.90614000",
    "native": null,
    "timezone": "Europe/Vienna",
    "translations": {}
  },
  {
    "id": 1703,
    "name": "Au am Leithaberge",
    "state_id": 2065,
    "state_code": "3",
    "country_id": 15,
    "country_code": "AT",
    "latitude": "47.92296000",
    "longitude": "16.55794000",
    "native": null,
    "timezone": "Europe/Vienna",
    "translations": {}
  },
  {
    "id": 1708,
    "name": "Auersthal",
    "state_id": 2065,
    "state_code": "3",
    "country_id": 15,
    "country_code": "AT",
    "latitude": "48.37373000",
    "longitude": "16.63596000",
    "native": null,
    "timezone": "Europe/Vienna",
    "translations": {}
  },
  {
    "id": 1718,
    "name": "Bad Deutsch-Altenburg",
    "state_id": 2065,
    "state_code": "3",
    "country_id": 15,
    "country_code": "AT",
    "latitude": "48.13425000",
    "longitude": "16.90624000",
    "native": null,
    "timezone": "Europe/Vienna",
    "translations": {}
  },
  {
    "id": 1719,
    "name": "Bad Erlach",
    "state_id": 2065,
    "state_code": "3",
    "country_id": 15,
    "country_code": "AT",
    "latitude": "47.72722000",
    "longitude": "16.21444000",
    "native": null,
    "timezone": "Europe/Vienna",
    "translations": {}
  },
  {
    "id": 1720,
    "name": "Bad Fischau",
    "state_id": 2065,
    "state_code": "3",
    "country_id": 15,
    "country_code": "AT",
    "latitude": "47.83137000",
    "longitude": "16.16707000",
    "native": null,
    "timezone": "Europe/Vienna",
    "translations": {}
  },
  {
    "id": 1731,
    "name": "Bad Pirawarth",
    "state_id": 2065,
    "state_code": "3",
    "country_id": 15,
    "country_code": "AT",
    "latitude": "48.45194000",
    "longitude": "16.59833000",
    "native": null,
    "timezone": "Europe/Vienna",
    "translations": {}
  },
  {
    "id": 1736,
    "name": "Bad Schönau",
    "state_id": 2065,
    "state_code": "3",
    "country_id": 15,
    "country_code": "AT",
    "latitude": "47.49473000",
    "longitude": "16.23410000",
    "native": null,
    "timezone": "Europe/Vienna",
    "translations": {}
  },
  {
    "id": 1738,
    "name": "Bad Traunstein",
    "state_id": 2065,
    "state_code": "3",
    "country_id": 15,
    "country_code": "AT",
    "latitude": "48.43850000",
    "longitude": "15.11712000",
    "native": null,
    "timezone": "Europe/Vienna",
    "translations": {}
  },
  {
    "id": 1739,
    "name": "Bad Vöslau",
    "state_id": 2065,
    "state_code": "3",
    "country_id": 15,
    "country_code": "AT",
    "latitude": "47.96533000",
    "longitude": "16.21359000",
    "native": null,
    "timezone": "Europe/Vienna",
    "translations": {}
  },
  {
    "id": 1742,
    "name": "Baden",
    "state_id": 2065,
    "state_code": "3",
    "country_id": 15,
    "country_code": "AT",
    "latitude": "48.00543000",
    "longitude": "16.23264000",
    "native": null,
    "timezone": "Europe/Vienna",
    "translations": {}
  },
  {
    "id": 1824,
    "name": "Bärnkopf",
    "state_id": 2065,
    "state_code": "3",
    "country_id": 15,
    "country_code": "AT",
    "latitude": "48.39046000",
    "longitude": "15.00479000",
    "native": null,
    "timezone": "Europe/Vienna",
    "translations": {}
  },
  {
    "id": 1752,
    "name": "Behamberg",
    "state_id": 2065,
    "state_code": "3",
    "country_id": 15,
    "country_code": "AT",
    "latitude": "48.01667000",
    "longitude": "14.48333000",
    "native": null,
    "timezone": "Europe/Vienna",
    "translations": {}
  },
  {
    "id": 1753,
    "name": "Berg",
    "state_id": 2065,
    "state_code": "3",
    "country_id": 15,
    "country_code": "AT",
    "latitude": "48.10147000",
    "longitude": "17.03842000",
    "native": null,
    "timezone": "Europe/Vienna",
    "translations": {}
  },
  {
    "id": 1759,
    "name": "Bergland",
    "state_id": 2065,
    "state_code": "3",
    "country_id": 15,
    "country_code": "AT",
    "latitude": "48.15595000",
    "longitude": "15.18553000",
    "native": null,
    "timezone": "Europe/Vienna",
    "translations": {}
  },
  {
    "id": 1761,
    "name": "Berndorf",
    "state_id": 2065,
    "state_code": "3",
    "country_id": 15,
    "country_code": "AT",
    "latitude": "47.94567000",
    "longitude": "16.10973000",
    "native": null,
    "timezone": "Europe/Vienna",
    "translations": {}
  },
  {
    "id": 1764,
    "name": "Bernhardsthal",
    "state_id": 2065,
    "state_code": "3",
    "country_id": 15,
    "country_code": "AT",
    "latitude": "48.69158000",
    "longitude": "16.86951000",
    "native": null,
    "timezone": "Europe/Vienna",
    "translations": {}
  },
  {
    "id": 1768,
    "name": "Biberbach",
    "state_id": 2065,
    "state_code": "3",
    "country_id": 15,
    "country_code": "AT",
    "latitude": "48.03006000",
    "longitude": "14.70795000",
    "native": null,
    "timezone": "Europe/Vienna",
    "translations": {}
  },
  {
    "id": 1771,
    "name": "Biedermannsdorf",
    "state_id": 2065,
    "state_code": "3",
    "country_id": 15,
    "country_code": "AT",
    "latitude": "48.08393000",
    "longitude": "16.34542000",
    "native": null,
    "timezone": "Europe/Vienna",
    "translations": {}
  },
  {
    "id": 1776,
    "name": "Bisamberg",
    "state_id": 2065,
    "state_code": "3",
    "country_id": 15,
    "country_code": "AT",
    "latitude": "48.33333000",
    "longitude": "16.35000000",
    "native": null,
    "timezone": "Europe/Vienna",
    "translations": {}
  },
  {
    "id": 1778,
    "name": "Bischofstetten",
    "state_id": 2065,
    "state_code": "3",
    "country_id": 15,
    "country_code": "AT",
    "latitude": "48.12222000",
    "longitude": "15.46909000",
    "native": null,
    "timezone": "Europe/Vienna",
    "translations": {}
  },
  {
    "id": 1782,
    "name": "Blindenmarkt",
    "state_id": 2065,
    "state_code": "3",
    "country_id": 15,
    "country_code": "AT",
    "latitude": "48.12749000",
    "longitude": "14.98647000",
    "native": null,
    "timezone": "Europe/Vienna",
    "translations": {}
  },
  {
    "id": 1786,
    "name": "Bockfließ",
    "state_id": 2065,
    "state_code": "3",
    "country_id": 15,
    "country_code": "AT",
    "latitude": "48.36000000",
    "longitude": "16.60389000",
    "native": null,
    "timezone": "Europe/Vienna",
    "translations": {}
  },
  {
    "id": 1825,
    "name": "Böheimkirchen",
    "state_id": 2065,
    "state_code": "3",
    "country_id": 15,
    "country_code": "AT",
    "latitude": "48.19779000",
    "longitude": "15.76178000",
    "native": null,
    "timezone": "Europe/Vienna",
    "translations": {}
  },
  {
    "id": 1796,
    "name": "Breitenau",
    "state_id": 2065,
    "state_code": "3",
    "country_id": 15,
    "country_code": "AT",
    "latitude": "47.73355000",
    "longitude": "16.14338000",
    "native": null,
    "timezone": "Europe/Vienna",
    "translations": {}
  },
  {
    "id": 1801,
    "name": "Breitenfurt bei Wien",
    "state_id": 2065,
    "state_code": "3",
    "country_id": 15,
    "country_code": "AT",
    "latitude": "48.13333000",
    "longitude": "16.15000000",
    "native": null,
    "timezone": "Europe/Vienna",
    "translations": {}
  },
  {
    "id": 1806,
    "name": "Bromberg",
    "state_id": 2065,
    "state_code": "3",
    "country_id": 15,
    "country_code": "AT",
    "latitude": "47.66539000",
    "longitude": "16.20990000",
    "native": null,
    "timezone": "Europe/Vienna",
    "translations": {}
  },
  {
    "id": 1809,
    "name": "Bruck an der Leitha",
    "state_id": 2065,
    "state_code": "3",
    "country_id": 15,
    "country_code": "AT",
    "latitude": "48.01667000",
    "longitude": "16.76667000",
    "native": null,
    "timezone": "Europe/Vienna",
    "translations": {}
  },
  {
    "id": 1813,
    "name": "Brunn am Gebirge",
    "state_id": 2065,
    "state_code": "3",
    "country_id": 15,
    "country_code": "AT",
    "latitude": "48.10697000",
    "longitude": "16.28466000",
    "native": null,
    "timezone": "Europe/Vienna",
    "translations": {}
  },
  {
    "id": 1814,
    "name": "Brunn an der Schneebergbahn",
    "state_id": 2065,
    "state_code": "3",
    "country_id": 15,
    "country_code": "AT",
    "latitude": "47.82376000",
    "longitude": "16.15934000",
    "native": null,
    "timezone": "Europe/Vienna",
    "translations": {}
  },
  {
    "id": 1815,
    "name": "Brunn an der Wild",
    "state_id": 2065,
    "state_code": "3",
    "country_id": 15,
    "country_code": "AT",
    "latitude": "48.69425000",
    "longitude": "15.52008000",
    "native": null,
    "timezone": "Europe/Vienna",
    "translations": {}
  },
  {
    "id": 1818,
    "name": "Buchbach",
    "state_id": 2065,
    "state_code": "3",
    "country_id": 15,
    "country_code": "AT",
    "latitude": "47.69648000",
    "longitude": "15.98425000",
    "native": null,
    "timezone": "Europe/Vienna",
    "translations": {}
  },
  {
    "id": 1841,
    "name": "Deutsch-Wagram",
    "state_id": 2065,
    "state_code": "3",
    "country_id": 15,
    "country_code": "AT",
    "latitude": "48.29972000",
    "longitude": "16.56667000",
    "native": null,
    "timezone": "Europe/Vienna",
    "translations": {}
  },
  {
    "id": 1855,
    "name": "Dobersberg",
    "state_id": 2065,
    "state_code": "3",
    "country_id": 15,
    "country_code": "AT",
    "latitude": "48.91510000",
    "longitude": "15.32188000",
    "native": null,
    "timezone": "Europe/Vienna",
    "translations": {}
  },
  {
    "id": 1864,
    "name": "Dorfstetten",
    "state_id": 2065,
    "state_code": "3",
    "country_id": 15,
    "country_code": "AT",
    "latitude": "48.32573000",
    "longitude": "14.98218000",
    "native": null,
    "timezone": "Europe/Vienna",
    "translations": {}
  },
  {
    "id": 1867,
    "name": "Drasenhofen",
    "state_id": 2065,
    "state_code": "3",
    "country_id": 15,
    "country_code": "AT",
    "latitude": "48.75000000",
    "longitude": "16.65000000",
    "native": null,
    "timezone": "Europe/Vienna",
    "translations": {}
  },
  {
    "id": 1870,
    "name": "Drösing",
    "state_id": 2065,
    "state_code": "3",
    "country_id": 15,
    "country_code": "AT",
    "latitude": "48.53900000",
    "longitude": "16.90264000",
    "native": null,
    "timezone": "Europe/Vienna",
    "translations": {}
  },
  {
    "id": 1869,
    "name": "Droß",
    "state_id": 2065,
    "state_code": "3",
    "country_id": 15,
    "country_code": "AT",
    "latitude": "48.46393000",
    "longitude": "15.57561000",
    "native": null,
    "timezone": "Europe/Vienna",
    "translations": {}
  },
  {
    "id": 1877,
    "name": "Dürnkrut",
    "state_id": 2065,
    "state_code": "3",
    "country_id": 15,
    "country_code": "AT",
    "latitude": "48.47315000",
    "longitude": "16.85062000",
    "native": null,
    "timezone": "Europe/Vienna",
    "translations": {}
  },
  {
    "id": 1878,
    "name": "Dürnstein",
    "state_id": 2065,
    "state_code": "3",
    "country_id": 15,
    "country_code": "AT",
    "latitude": "48.39582000",
    "longitude": "15.51973000",
    "native": null,
    "timezone": "Europe/Vienna",
    "translations": {}
  },
  {
    "id": 1884,
    "name": "Ebenfurth",
    "state_id": 2065,
    "state_code": "3",
    "country_id": 15,
    "country_code": "AT",
    "latitude": "47.87738000",
    "longitude": "16.36731000",
    "native": null,
    "timezone": "Europe/Vienna",
    "translations": {}
  },
  {
    "id": 1887,
    "name": "Ebenthal",
    "state_id": 2065,
    "state_code": "3",
    "country_id": 15,
    "country_code": "AT",
    "latitude": "48.43333000",
    "longitude": "16.78333000",
    "native": null,
    "timezone": "Europe/Vienna",
    "translations": {}
  },
  {
    "id": 1889,
    "name": "Ebergassing",
    "state_id": 2065,
    "state_code": "3",
    "country_id": 15,
    "country_code": "AT",
    "latitude": "48.04567000",
    "longitude": "16.51709000",
    "native": null,
    "timezone": "Europe/Vienna",
    "translations": {}
  },
  {
    "id": 1895,
    "name": "Ebreichsdorf",
    "state_id": 2065,
    "state_code": "3",
    "country_id": 15,
    "country_code": "AT",
    "latitude": "47.95579000",
    "longitude": "16.40705000",
    "native": null,
    "timezone": "Europe/Vienna",
    "translations": {}
  },
  {
    "id": 1897,
    "name": "Echsenbach",
    "state_id": 2065,
    "state_code": "3",
    "country_id": 15,
    "country_code": "AT",
    "latitude": "48.71667000",
    "longitude": "15.21667000",
    "native": null,
    "timezone": "Europe/Vienna",
    "translations": {}
  },
  {
    "id": 1898,
    "name": "Eckartsau",
    "state_id": 2065,
    "state_code": "3",
    "country_id": 15,
    "country_code": "AT",
    "latitude": "48.14507000",
    "longitude": "16.79737000",
    "native": null,
    "timezone": "Europe/Vienna",
    "translations": {}
  },
  {
    "id": 1904,
    "name": "Edlitz",
    "state_id": 2065,
    "state_code": "3",
    "country_id": 15,
    "country_code": "AT",
    "latitude": "47.59797000",
    "longitude": "16.14052000",
    "native": null,
    "timezone": "Europe/Vienna",
    "translations": {}
  },
  {
    "id": 1909,
    "name": "Eggenburg",
    "state_id": 2065,
    "state_code": "3",
    "country_id": 15,
    "country_code": "AT",
    "latitude": "48.63892000",
    "longitude": "15.81903000",
    "native": null,
    "timezone": "Europe/Vienna",
    "translations": {}
  },
  {
    "id": 1910,
    "name": "Eggendorf",
    "state_id": 2065,
    "state_code": "3",
    "country_id": 15,
    "country_code": "AT",
    "latitude": "47.85809000",
    "longitude": "16.32182000",
    "native": null,
    "timezone": "Europe/Vienna",
    "translations": {}
  },
  {
    "id": 1911,
    "name": "Eggern",
    "state_id": 2065,
    "state_code": "3",
    "country_id": 15,
    "country_code": "AT",
    "latitude": "48.90829000",
    "longitude": "15.14877000",
    "native": null,
    "timezone": "Europe/Vienna",
    "translations": {}
  },
  {
    "id": 1920,
    "name": "Eichgraben",
    "state_id": 2065,
    "state_code": "3",
    "country_id": 15,
    "country_code": "AT",
    "latitude": "48.17204000",
    "longitude": "15.98391000",
    "native": null,
    "timezone": "Europe/Vienna",
    "translations": {}
  },
  {
    "id": 1927,
    "name": "Eisgarn",
    "state_id": 2065,
    "state_code": "3",
    "country_id": 15,
    "country_code": "AT",
    "latitude": "48.91675000",
    "longitude": "15.10320000",
    "native": null,
    "timezone": "Europe/Vienna",
    "translations": {}
  },
  {
    "id": 1935,
    "name": "Emmersdorf an der Donau",
    "state_id": 2065,
    "state_code": "3",
    "country_id": 15,
    "country_code": "AT",
    "latitude": "48.24140000",
    "longitude": "15.33721000",
    "native": null,
    "timezone": "Europe/Vienna",
    "translations": {}
  },
  {
    "id": 1938,
    "name": "Engelhartstetten",
    "state_id": 2065,
    "state_code": "3",
    "country_id": 15,
    "country_code": "AT",
    "latitude": "48.18160000",
    "longitude": "16.88367000",
    "native": null,
    "timezone": "Europe/Vienna",
    "translations": {}
  },
  {
    "id": 1941,
    "name": "Ennsdorf",
    "state_id": 2065,
    "state_code": "3",
    "country_id": 15,
    "country_code": "AT",
    "latitude": "48.21181000",
    "longitude": "14.50290000",
    "native": null,
    "timezone": "Europe/Vienna",
    "translations": {}
  },
  {
    "id": 1942,
    "name": "Enzenreith",
    "state_id": 2065,
    "state_code": "3",
    "country_id": 15,
    "country_code": "AT",
    "latitude": "47.66839000",
    "longitude": "15.95249000",
    "native": null,
    "timezone": "Europe/Vienna",
    "translations": {}
  },
  {
    "id": 1943,
    "name": "Enzersdorf an der Fischa",
    "state_id": 2065,
    "state_code": "3",
    "country_id": 15,
    "country_code": "AT",
    "latitude": "48.08502000",
    "longitude": "16.60832000",
    "native": null,
    "timezone": "Europe/Vienna",
    "translations": {}
  },
  {
    "id": 1944,
    "name": "Enzersfeld",
    "state_id": 2065,
    "state_code": "3",
    "country_id": 15,
    "country_code": "AT",
    "latitude": "48.36338000",
    "longitude": "16.42387000",
    "native": null,
    "timezone": "Europe/Vienna",
    "translations": {}
  },
  {
    "id": 1947,
    "name": "Erlauf",
    "state_id": 2065,
    "state_code": "3",
    "country_id": 15,
    "country_code": "AT",
    "latitude": "48.18333000",
    "longitude": "15.18333000",
    "native": null,
    "timezone": "Europe/Vienna",
    "translations": {}
  },
  {
    "id": 1948,
    "name": "Ernstbrunn",
    "state_id": 2065,
    "state_code": "3",
    "country_id": 15,
    "country_code": "AT",
    "latitude": "48.53333000",
    "longitude": "16.35000000",
    "native": null,
    "timezone": "Europe/Vienna",
    "translations": {}
  },
  {
    "id": 1949,
    "name": "Ernsthofen",
    "state_id": 2065,
    "state_code": "3",
    "country_id": 15,
    "country_code": "AT",
    "latitude": "48.12915000",
    "longitude": "14.48058000",
    "native": null,
    "timezone": "Europe/Vienna",
    "translations": {}
  },
  {
    "id": 1950,
    "name": "Erpersdorf",
    "state_id": 2065,
    "state_code": "3",
    "country_id": 15,
    "country_code": "AT",
    "latitude": "48.34210000",
    "longitude": "15.91747000",
    "native": null,
    "timezone": "Europe/Vienna",
    "translations": {}
  },
  {
    "id": 1952,
    "name": "Ertl",
    "state_id": 2065,
    "state_code": "3",
    "country_id": 15,
    "country_code": "AT",
    "latitude": "47.97704000",
    "longitude": "14.63134000",
    "native": null,
    "timezone": "Europe/Vienna",
    "translations": {}
  },
  {
    "id": 1954,
    "name": "Eschenau",
    "state_id": 2065,
    "state_code": "3",
    "country_id": 15,
    "country_code": "AT",
    "latitude": "48.04825000",
    "longitude": "15.56694000",
    "native": null,
    "timezone": "Europe/Vienna",
    "translations": {}
  },
  {
    "id": 1956,
    "name": "Euratsfeld",
    "state_id": 2065,
    "state_code": "3",
    "country_id": 15,
    "country_code": "AT",
    "latitude": "48.08181000",
    "longitude": "14.93154000",
    "native": null,
    "timezone": "Europe/Vienna",
    "translations": {}
  },
  {
    "id": 1960,
    "name": "Falkenstein",
    "state_id": 2065,
    "state_code": "3",
    "country_id": 15,
    "country_code": "AT",
    "latitude": "48.71667000",
    "longitude": "16.58333000",
    "native": null,
    "timezone": "Europe/Vienna",
    "translations": {}
  },
  {
    "id": 1961,
    "name": "Fallbach",
    "state_id": 2065,
    "state_code": "3",
    "country_id": 15,
    "country_code": "AT",
    "latitude": "48.65000000",
    "longitude": "16.41667000",
    "native": null,
    "timezone": "Europe/Vienna",
    "translations": {}
  },
  {
    "id": 1965,
    "name": "Feistritz am Wechsel",
    "state_id": 2065,
    "state_code": "3",
    "country_id": 15,
    "country_code": "AT",
    "latitude": "47.60000000",
    "longitude": "16.05000000",
    "native": null,
    "timezone": "Europe/Vienna",
    "translations": {}
  },
  {
    "id": 1977,
    "name": "Felixdorf",
    "state_id": 2065,
    "state_code": "3",
    "country_id": 15,
    "country_code": "AT",
    "latitude": "47.88159000",
    "longitude": "16.24208000",
    "native": null,
    "timezone": "Europe/Vienna",
    "translations": {}
  },
  {
    "id": 1978,
    "name": "Fels am Wagram",
    "state_id": 2065,
    "state_code": "3",
    "country_id": 15,
    "country_code": "AT",
    "latitude": "48.43333000",
    "longitude": "15.81667000",
    "native": null,
    "timezone": "Europe/Vienna",
    "translations": {}
  },
  {
    "id": 1983,
    "name": "Ferschnitz",
    "state_id": 2065,
    "state_code": "3",
    "country_id": 15,
    "country_code": "AT",
    "latitude": "48.09419000",
    "longitude": "14.98454000",
    "native": null,
    "timezone": "Europe/Vienna",
    "translations": {}
  },
  {
    "id": 1990,
    "name": "Fischamend-Markt",
    "state_id": 2065,
    "state_code": "3",
    "country_id": 15,
    "country_code": "AT",
    "latitude": "48.11667000",
    "longitude": "16.60000000",
    "native": null,
    "timezone": "Europe/Vienna",
    "translations": {}
  },
  {
    "id": 2009,
    "name": "Frankenfels",
    "state_id": 2065,
    "state_code": "3",
    "country_id": 15,
    "country_code": "AT",
    "latitude": "47.98234000",
    "longitude": "15.32593000",
    "native": null,
    "timezone": "Europe/Vienna",
    "translations": {}
  },
  {
    "id": 2027,
    "name": "Frohsdorf",
    "state_id": 2065,
    "state_code": "3",
    "country_id": 15,
    "country_code": "AT",
    "latitude": "47.73333000",
    "longitude": "16.25000000",
    "native": null,
    "timezone": "Europe/Vienna",
    "translations": {}
  },
  {
    "id": 2029,
    "name": "Furth an der Triesting",
    "state_id": 2065,
    "state_code": "3",
    "country_id": 15,
    "country_code": "AT",
    "latitude": "47.97326000",
    "longitude": "15.97326000",
    "native": null,
    "timezone": "Europe/Vienna",
    "translations": {}
  },
  {
    "id": 2030,
    "name": "Furth bei Göttweig",
    "state_id": 2065,
    "state_code": "3",
    "country_id": 15,
    "country_code": "AT",
    "latitude": "48.37385000",
    "longitude": "15.61408000",
    "native": null,
    "timezone": "Europe/Vienna",
    "translations": {}
  },
  {
    "id": 2038,
    "name": "Gaaden",
    "state_id": 2065,
    "state_code": "3",
    "country_id": 15,
    "country_code": "AT",
    "latitude": "48.05364000",
    "longitude": "16.20003000",
    "native": null,
    "timezone": "Europe/Vienna",
    "translations": {}
  },
  {
    "id": 2041,
    "name": "Gablitz",
    "state_id": 2065,
    "state_code": "3",
    "country_id": 15,
    "country_code": "AT",
    "latitude": "48.22856000",
    "longitude": "16.15437000",
    "native": null,
    "timezone": "Europe/Vienna",
    "translations": {}
  },
  {
    "id": 2044,
    "name": "Gainfarn",
    "state_id": 2065,
    "state_code": "3",
    "country_id": 15,
    "country_code": "AT",
    "latitude": "47.96280000",
    "longitude": "16.19368000",
    "native": null,
    "timezone": "Europe/Vienna",
    "translations": {}
  },
  {
    "id": 2052,
    "name": "Gaming",
    "state_id": 2065,
    "state_code": "3",
    "country_id": 15,
    "country_code": "AT",
    "latitude": "47.92900000",
    "longitude": "15.08818000",
    "native": null,
    "timezone": "Europe/Vienna",
    "translations": {}
  },
  {
    "id": 2183,
    "name": "Gänserndorf",
    "state_id": 2065,
    "state_code": "3",
    "country_id": 15,
    "country_code": "AT",
    "latitude": "48.33925000",
    "longitude": "16.72016000",
    "native": null,
    "timezone": "Europe/Vienna",
    "translations": {}
  },
  {
    "id": 2058,
    "name": "Gars am Kamp",
    "state_id": 2065,
    "state_code": "3",
    "country_id": 15,
    "country_code": "AT",
    "latitude": "48.58899000",
    "longitude": "15.65363000",
    "native": null,
    "timezone": "Europe/Vienna",
    "translations": {}
  },
  {
    "id": 2063,
    "name": "Gastern",
    "state_id": 2065,
    "state_code": "3",
    "country_id": 15,
    "country_code": "AT",
    "latitude": "48.89446000",
    "longitude": "15.22027000",
    "native": null,
    "timezone": "Europe/Vienna",
    "translations": {}
  },
  {
    "id": 2065,
    "name": "Gaubitsch",
    "state_id": 2065,
    "state_code": "3",
    "country_id": 15,
    "country_code": "AT",
    "latitude": "48.65000000",
    "longitude": "16.38333000",
    "native": null,
    "timezone": "Europe/Vienna",
    "translations": {}
  },
  {
    "id": 2067,
    "name": "Gaweinstal",
    "state_id": 2065,
    "state_code": "3",
    "country_id": 15,
    "country_code": "AT",
    "latitude": "48.48003000",
    "longitude": "16.58790000",
    "native": null,
    "timezone": "Europe/Vienna",
    "translations": {}
  },
  {
    "id": 2069,
    "name": "Gedersdorf",
    "state_id": 2065,
    "state_code": "3",
    "country_id": 15,
    "country_code": "AT",
    "latitude": "48.43319000",
    "longitude": "15.68865000",
    "native": null,
    "timezone": "Europe/Vienna",
    "translations": {}
  },
  {
    "id": 2073,
    "name": "Geras",
    "state_id": 2065,
    "state_code": "3",
    "country_id": 15,
    "country_code": "AT",
    "latitude": "48.79725000",
    "longitude": "15.67268000",
    "native": null,
    "timezone": "Europe/Vienna",
    "translations": {}
  },
  {
    "id": 2074,
    "name": "Gerasdorf bei Wien",
    "state_id": 2065,
    "state_code": "3",
    "country_id": 15,
    "country_code": "AT",
    "latitude": "48.29447000",
    "longitude": "16.46765000",
    "native": null,
    "timezone": "Europe/Vienna",
    "translations": {}
  },
  {
    "id": 2075,
    "name": "Gerersdorf",
    "state_id": 2065,
    "state_code": "3",
    "country_id": 15,
    "country_code": "AT",
    "latitude": "48.20088000",
    "longitude": "15.55613000",
    "native": null,
    "timezone": "Europe/Vienna",
    "translations": {}
  },
  {
    "id": 2078,
    "name": "Gerolding",
    "state_id": 2065,
    "state_code": "3",
    "country_id": 15,
    "country_code": "AT",
    "latitude": "48.25000000",
    "longitude": "15.41667000",
    "native": null,
    "timezone": "Europe/Vienna",
    "translations": {}
  },
  {
    "id": 2080,
    "name": "Gföhl",
    "state_id": 2065,
    "state_code": "3",
    "country_id": 15,
    "country_code": "AT",
    "latitude": "48.51667000",
    "longitude": "15.48333000",
    "native": null,
    "timezone": "Europe/Vienna",
    "translations": {}
  },
  {
    "id": 2081,
    "name": "Gießhübl",
    "state_id": 2065,
    "state_code": "3",
    "country_id": 15,
    "country_code": "AT",
    "latitude": "48.09780000",
    "longitude": "16.23479000",
    "native": null,
    "timezone": "Europe/Vienna",
    "translations": {}
  },
  {
    "id": 2087,
    "name": "Glinzendorf",
    "state_id": 2065,
    "state_code": "3",
    "country_id": 15,
    "country_code": "AT",
    "latitude": "48.24605000",
    "longitude": "16.64060000",
    "native": null,
    "timezone": "Europe/Vienna",
    "translations": {}
  },
  {
    "id": 2089,
    "name": "Gloggnitz",
    "state_id": 2065,
    "state_code": "3",
    "country_id": 15,
    "country_code": "AT",
    "latitude": "47.67487000",
    "longitude": "15.93893000",
    "native": null,
    "timezone": "Europe/Vienna",
    "translations": {}
  },
  {
    "id": 2094,
    "name": "Gmünd",
    "state_id": 2065,
    "state_code": "3",
    "country_id": 15,
    "country_code": "AT",
    "latitude": "48.76830000",
    "longitude": "14.98080000",
    "native": null,
    "timezone": "Europe/Vienna",
    "translations": {}
  },
  {
    "id": 2095,
    "name": "Gnadendorf",
    "state_id": 2065,
    "state_code": "3",
    "country_id": 15,
    "country_code": "AT",
    "latitude": "48.61667000",
    "longitude": "16.40000000",
    "native": null,
    "timezone": "Europe/Vienna",
    "translations": {}
  },
  {
    "id": 2098,
    "name": "Gneixendorf",
    "state_id": 2065,
    "state_code": "3",
    "country_id": 15,
    "country_code": "AT",
    "latitude": "48.43751000",
    "longitude": "15.61810000",
    "native": null,
    "timezone": "Europe/Vienna",
    "translations": {}
  },
  {
    "id": 2185,
    "name": "Göllersdorf",
    "state_id": 2065,
    "state_code": "3",
    "country_id": 15,
    "country_code": "AT",
    "latitude": "48.49357000",
    "longitude": "16.11943000",
    "native": null,
    "timezone": "Europe/Vienna",
    "translations": {}
  },
  {
    "id": 2186,
    "name": "Göpfritz an der Wild",
    "state_id": 2065,
    "state_code": "3",
    "country_id": 15,
    "country_code": "AT",
    "latitude": "48.72497000",
    "longitude": "15.40236000",
    "native": null,
    "timezone": "Europe/Vienna",
    "translations": {}
  },
  {
    "id": 2191,
    "name": "Göstling an der Ybbs",
    "state_id": 2065,
    "state_code": "3",
    "country_id": 15,
    "country_code": "AT",
    "latitude": "47.80664000",
    "longitude": "14.93797000",
    "native": null,
    "timezone": "Europe/Vienna",
    "translations": {}
  },
  {
    "id": 2193,
    "name": "Götzendorf an der Leitha",
    "state_id": 2065,
    "state_code": "3",
    "country_id": 15,
    "country_code": "AT",
    "latitude": "48.01667000",
    "longitude": "16.58333000",
    "native": null,
    "timezone": "Europe/Vienna",
    "translations": {}
  },
  {
    "id": 2110,
    "name": "Grafenegg",
    "state_id": 2065,
    "state_code": "3",
    "country_id": 15,
    "country_code": "AT",
    "latitude": "48.43040000",
    "longitude": "15.74907000",
    "native": null,
    "timezone": "Europe/Vienna",
    "translations": {}
  },
  {
    "id": 2112,
    "name": "Grafenschlag",
    "state_id": 2065,
    "state_code": "3",
    "country_id": 15,
    "country_code": "AT",
    "latitude": "48.50000000",
    "longitude": "15.16667000",
    "native": null,
    "timezone": "Europe/Vienna",
    "translations": {}
  },
  {
    "id": 2114,
    "name": "Grafenwörth",
    "state_id": 2065,
    "state_code": "3",
    "country_id": 15,
    "country_code": "AT",
    "latitude": "48.40790000",
    "longitude": "15.77826000",
    "native": null,
    "timezone": "Europe/Vienna",
    "translations": {}
  },
  {
    "id": 2118,
    "name": "Gramatneusiedl",
    "state_id": 2065,
    "state_code": "3",
    "country_id": 15,
    "country_code": "AT",
    "latitude": "48.03040000",
    "longitude": "16.48936000",
    "native": null,
    "timezone": "Europe/Vienna",
    "translations": {}
  },
  {
    "id": 2126,
    "name": "Greinsfurth",
    "state_id": 2065,
    "state_code": "3",
    "country_id": 15,
    "country_code": "AT",
    "latitude": "48.10846000",
    "longitude": "14.84390000",
    "native": null,
    "timezone": "Europe/Vienna",
    "translations": {}
  },
  {
    "id": 2129,
    "name": "Gresten",
    "state_id": 2065,
    "state_code": "3",
    "country_id": 15,
    "country_code": "AT",
    "latitude": "47.98521000",
    "longitude": "15.02552000",
    "native": null,
    "timezone": "Europe/Vienna",
    "translations": {}
  },
  {
    "id": 2136,
    "name": "Grimmenstein",
    "state_id": 2065,
    "state_code": "3",
    "country_id": 15,
    "country_code": "AT",
    "latitude": "47.61635000",
    "longitude": "16.12724000",
    "native": null,
    "timezone": "Europe/Vienna",
    "translations": {}
  },
  {
    "id": 2146,
    "name": "Groß-Engersdorf",
    "state_id": 2065,
    "state_code": "3",
    "country_id": 15,
    "country_code": "AT",
    "latitude": "48.35873000",
    "longitude": "16.56610000",
    "native": null,
    "timezone": "Europe/Vienna",
    "translations": {}
  },
  {
    "id": 2147,
    "name": "Groß-Enzersdorf",
    "state_id": 2065,
    "state_code": "3",
    "country_id": 15,
    "country_code": "AT",
    "latitude": "48.20278000",
    "longitude": "16.55083000",
    "native": null,
    "timezone": "Europe/Vienna",
    "translations": {}
  },
  {
    "id": 2148,
    "name": "Groß-Gerungs",
    "state_id": 2065,
    "state_code": "3",
    "country_id": 15,
    "country_code": "AT",
    "latitude": "48.57422000",
    "longitude": "14.95789000",
    "native": null,
    "timezone": "Europe/Vienna",
    "translations": {}
  },
  {
    "id": 2149,
    "name": "Groß-Schweinbarth",
    "state_id": 2065,
    "state_code": "3",
    "country_id": 15,
    "country_code": "AT",
    "latitude": "48.41472000",
    "longitude": "16.63194000",
    "native": null,
    "timezone": "Europe/Vienna",
    "translations": {}
  },
  {
    "id": 2150,
    "name": "Groß-Siegharts",
    "state_id": 2065,
    "state_code": "3",
    "country_id": 15,
    "country_code": "AT",
    "latitude": "48.79180000",
    "longitude": "15.40429000",
    "native": null,
    "timezone": "Europe/Vienna",
    "translations": {}
  },
  {
    "id": 2152,
    "name": "Großebersdorf",
    "state_id": 2065,
    "state_code": "3",
    "country_id": 15,
    "country_code": "AT",
    "latitude": "48.36405000",
    "longitude": "16.47076000",
    "native": null,
    "timezone": "Europe/Vienna",
    "translations": {}
  },
  {
    "id": 2153,
    "name": "Großharras",
    "state_id": 2065,
    "state_code": "3",
    "country_id": 15,
    "country_code": "AT",
    "latitude": "48.66389000",
    "longitude": "16.24556000",
    "native": null,
    "timezone": "Europe/Vienna",
    "translations": {}
  },
  {
    "id": 2154,
    "name": "Großhofen",
    "state_id": 2065,
    "state_code": "3",
    "country_id": 15,
    "country_code": "AT",
    "latitude": "48.25834000",
    "longitude": "16.61940000",
    "native": null,
    "timezone": "Europe/Vienna",
    "translations": {}
  },
  {
    "id": 2157,
    "name": "Großkrut",
    "state_id": 2065,
    "state_code": "3",
    "country_id": 15,
    "country_code": "AT",
    "latitude": "48.64389000",
    "longitude": "16.72361000",
    "native": null,
    "timezone": "Europe/Vienna",
    "translations": {}
  },
  {
    "id": 2159,
    "name": "Großmugl",
    "state_id": 2065,
    "state_code": "3",
    "country_id": 15,
    "country_code": "AT",
    "latitude": "48.49917000",
    "longitude": "16.23056000",
    "native": null,
    "timezone": "Europe/Vienna",
    "translations": {}
  },
  {
    "id": 2160,
    "name": "Großriedenthal",
    "state_id": 2065,
    "state_code": "3",
    "country_id": 15,
    "country_code": "AT",
    "latitude": "48.48333000",
    "longitude": "15.86667000",
    "native": null,
    "timezone": "Europe/Vienna",
    "translations": {}
  },
  {
    "id": 2161,
    "name": "Großrußbach",
    "state_id": 2065,
    "state_code": "3",
    "country_id": 15,
    "country_code": "AT",
    "latitude": "48.47412000",
    "longitude": "16.41649000",
    "native": null,
    "timezone": "Europe/Vienna",
    "translations": {}
  },
  {
    "id": 2163,
    "name": "Großweikersdorf",
    "state_id": 2065,
    "state_code": "3",
    "country_id": 15,
    "country_code": "AT",
    "latitude": "48.47123000",
    "longitude": "15.98251000",
    "native": null,
    "timezone": "Europe/Vienna",
    "translations": {}
  },
  {
    "id": 2168,
    "name": "Grünbach am Schneeberg",
    "state_id": 2065,
    "state_code": "3",
    "country_id": 15,
    "country_code": "AT",
    "latitude": "47.79747000",
    "longitude": "15.98785000",
    "native": null,
    "timezone": "Europe/Vienna",
    "translations": {}
  },
  {
    "id": 2172,
    "name": "Gugging",
    "state_id": 2065,
    "state_code": "3",
    "country_id": 15,
    "country_code": "AT",
    "latitude": "48.31385000",
    "longitude": "16.24852000",
    "native": null,
    "timezone": "Europe/Vienna",
    "translations": {}
  },
  {
    "id": 2173,
    "name": "Gumpoldskirchen",
    "state_id": 2065,
    "state_code": "3",
    "country_id": 15,
    "country_code": "AT",
    "latitude": "48.04538000",
    "longitude": "16.27710000",
    "native": null,
    "timezone": "Europe/Vienna",
    "translations": {}
  },
  {
    "id": 2196,
    "name": "Günselsdorf",
    "state_id": 2065,
    "state_code": "3",
    "country_id": 15,
    "country_code": "AT",
    "latitude": "47.94395000",
    "longitude": "16.26062000",
    "native": null,
    "timezone": "Europe/Vienna",
    "translations": {}
  },
  {
    "id": 2176,
    "name": "Guntersdorf",
    "state_id": 2065,
    "state_code": "3",
    "country_id": 15,
    "country_code": "AT",
    "latitude": "48.65000000",
    "longitude": "16.05000000",
    "native": null,
    "timezone": "Europe/Vienna",
    "translations": {}
  },
  {
    "id": 2177,
    "name": "Guntramsdorf",
    "state_id": 2065,
    "state_code": "3",
    "country_id": 15,
    "country_code": "AT",
    "latitude": "48.04687000",
    "longitude": "16.31384000",
    "native": null,
    "timezone": "Europe/Vienna",
    "translations": {}
  },
  {
    "id": 2180,
    "name": "Gutenbrunn",
    "state_id": 2065,
    "state_code": "3",
    "country_id": 15,
    "country_code": "AT",
    "latitude": "48.36520000",
    "longitude": "15.11899000",
    "native": null,
    "timezone": "Europe/Vienna",
    "translations": {}
  },
  {
    "id": 2181,
    "name": "Gutenstein",
    "state_id": 2065,
    "state_code": "3",
    "country_id": 15,
    "country_code": "AT",
    "latitude": "47.87600000",
    "longitude": "15.88881000",
    "native": null,
    "timezone": "Europe/Vienna",
    "translations": {}
  },
  {
    "id": 2200,
    "name": "Haag",
    "state_id": 2065,
    "state_code": "3",
    "country_id": 15,
    "country_code": "AT",
    "latitude": "48.11362000",
    "longitude": "14.56753000",
    "native": null,
    "timezone": "Europe/Vienna",
    "translations": {}
  },
  {
    "id": 2204,
    "name": "Hadersdorf am Kamp",
    "state_id": 2065,
    "state_code": "3",
    "country_id": 15,
    "country_code": "AT",
    "latitude": "48.45000000",
    "longitude": "15.71667000",
    "native": null,
    "timezone": "Europe/Vienna",
    "translations": {}
  },
  {
    "id": 2205,
    "name": "Hadres",
    "state_id": 2065,
    "state_code": "3",
    "country_id": 15,
    "country_code": "AT",
    "latitude": "48.70965000",
    "longitude": "16.13038000",
    "native": null,
    "timezone": "Europe/Vienna",
    "translations": {}
  },
  {
    "id": 2207,
    "name": "Hafnerbach",
    "state_id": 2065,
    "state_code": "3",
    "country_id": 15,
    "country_code": "AT",
    "latitude": "48.21667000",
    "longitude": "15.48333000",
    "native": null,
    "timezone": "Europe/Vienna",
    "translations": {}
  },
  {
    "id": 2209,
    "name": "Hagenbrunn",
    "state_id": 2065,
    "state_code": "3",
    "country_id": 15,
    "country_code": "AT",
    "latitude": "48.33333000",
    "longitude": "16.40000000",
    "native": null,
    "timezone": "Europe/Vienna",
    "translations": {}
  },
  {
    "id": 2213,
    "name": "Haidershofen",
    "state_id": 2065,
    "state_code": "3",
    "country_id": 15,
    "country_code": "AT",
    "latitude": "48.07579000",
    "longitude": "14.46131000",
    "native": null,
    "timezone": "Europe/Vienna",
    "translations": {}
  },
  {
    "id": 2216,
    "name": "Hainburg an der Donau",
    "state_id": 2065,
    "state_code": "3",
    "country_id": 15,
    "country_code": "AT",
    "latitude": "48.14627000",
    "longitude": "16.94504000",
    "native": null,
    "timezone": "Europe/Vienna",
    "translations": {}
  },
  {
    "id": 2218,
    "name": "Hainfeld",
    "state_id": 2065,
    "state_code": "3",
    "country_id": 15,
    "country_code": "AT",
    "latitude": "48.03390000",
    "longitude": "15.77414000",
    "native": null,
    "timezone": "Europe/Vienna",
    "translations": {}
  },
  {
    "id": 2230,
    "name": "Hardegg",
    "state_id": 2065,
    "state_code": "3",
    "country_id": 15,
    "country_code": "AT",
    "latitude": "48.85000000",
    "longitude": "15.85000000",
    "native": null,
    "timezone": "Europe/Vienna",
    "translations": {}
  },
  {
    "id": 2231,
    "name": "Haringsee",
    "state_id": 2065,
    "state_code": "3",
    "country_id": 15,
    "country_code": "AT",
    "latitude": "48.19270000",
    "longitude": "16.78741000",
    "native": null,
    "timezone": "Europe/Vienna",
    "translations": {}
  },
  {
    "id": 2232,
    "name": "Harland",
    "state_id": 2065,
    "state_code": "3",
    "country_id": 15,
    "country_code": "AT",
    "latitude": "48.16162000",
    "longitude": "15.63835000",
    "native": null,
    "timezone": "Europe/Vienna",
    "translations": {}
  },
  {
    "id": 2233,
    "name": "Harmannsdorf",
    "state_id": 2065,
    "state_code": "3",
    "country_id": 15,
    "country_code": "AT",
    "latitude": "48.39724000",
    "longitude": "16.37220000",
    "native": null,
    "timezone": "Europe/Vienna",
    "translations": {}
  },
  {
    "id": 2235,
    "name": "Hart",
    "state_id": 2065,
    "state_code": "3",
    "country_id": 15,
    "country_code": "AT",
    "latitude": "48.15320000",
    "longitude": "15.61569000",
    "native": null,
    "timezone": "Europe/Vienna",
    "translations": {}
  },
  {
    "id": 2247,
    "name": "Haugschlag",
    "state_id": 2065,
    "state_code": "3",
    "country_id": 15,
    "country_code": "AT",
    "latitude": "48.98333000",
    "longitude": "15.05000000",
    "native": null,
    "timezone": "Europe/Vienna",
    "translations": {}
  },
  {
    "id": 2248,
    "name": "Haugsdorf",
    "state_id": 2065,
    "state_code": "3",
    "country_id": 15,
    "country_code": "AT",
    "latitude": "48.70762000",
    "longitude": "16.07656000",
    "native": null,
    "timezone": "Europe/Vienna",
    "translations": {}
  },
  {
    "id": 2249,
    "name": "Haunoldstein",
    "state_id": 2065,
    "state_code": "3",
    "country_id": 15,
    "country_code": "AT",
    "latitude": "48.20000000",
    "longitude": "15.45000000",
    "native": null,
    "timezone": "Europe/Vienna",
    "translations": {}
  },
  {
    "id": 2252,
    "name": "Hausbrunn",
    "state_id": 2065,
    "state_code": "3",
    "country_id": 15,
    "country_code": "AT",
    "latitude": "48.62602000",
    "longitude": "16.82844000",
    "native": null,
    "timezone": "Europe/Vienna",
    "translations": {}
  },
  {
    "id": 2253,
    "name": "Hauskirchen",
    "state_id": 2065,
    "state_code": "3",
    "country_id": 15,
    "country_code": "AT",
    "latitude": "48.60000000",
    "longitude": "16.76667000",
    "native": null,
    "timezone": "Europe/Vienna",
    "translations": {}
  },
  {
    "id": 2254,
    "name": "Hausleiten",
    "state_id": 2065,
    "state_code": "3",
    "country_id": 15,
    "country_code": "AT",
    "latitude": "48.38333000",
    "longitude": "16.10000000",
    "native": null,
    "timezone": "Europe/Vienna",
    "translations": {}
  },
  {
    "id": 2256,
    "name": "Hausmening",
    "state_id": 2065,
    "state_code": "3",
    "country_id": 15,
    "country_code": "AT",
    "latitude": "48.07074000",
    "longitude": "14.81438000",
    "native": null,
    "timezone": "Europe/Vienna",
    "translations": {}
  },
  {
    "id": 2257,
    "name": "Heidenreichstein",
    "state_id": 2065,
    "state_code": "3",
    "country_id": 15,
    "country_code": "AT",
    "latitude": "48.86667000",
    "longitude": "15.11667000",
    "native": null,
    "timezone": "Europe/Vienna",
    "translations": {}
  },
  {
    "id": 2260,
    "name": "Heiligeneich",
    "state_id": 2065,
    "state_code": "3",
    "country_id": 15,
    "country_code": "AT",
    "latitude": "48.29964000",
    "longitude": "15.89413000",
    "native": null,
    "timezone": "Europe/Vienna",
    "translations": {}
  },
  {
    "id": 2261,
    "name": "Heiligenkreuz",
    "state_id": 2065,
    "state_code": "3",
    "country_id": 15,
    "country_code": "AT",
    "latitude": "48.05559000",
    "longitude": "16.12493000",
    "native": null,
    "timezone": "Europe/Vienna",
    "translations": {}
  },
  {
    "id": 2270,
    "name": "Hennersdorf",
    "state_id": 2065,
    "state_code": "3",
    "country_id": 15,
    "country_code": "AT",
    "latitude": "48.11173000",
    "longitude": "16.36311000",
    "native": null,
    "timezone": "Europe/Vienna",
    "translations": {}
  },
  {
    "id": 2273,
    "name": "Hernstein",
    "state_id": 2065,
    "state_code": "3",
    "country_id": 15,
    "country_code": "AT",
    "latitude": "47.89465000",
    "longitude": "16.10561000",
    "native": null,
    "timezone": "Europe/Vienna",
    "translations": {}
  },
  {
    "id": 2274,
    "name": "Herrnbaumgarten",
    "state_id": 2065,
    "state_code": "3",
    "country_id": 15,
    "country_code": "AT",
    "latitude": "48.69606000",
    "longitude": "16.68283000",
    "native": null,
    "timezone": "Europe/Vienna",
    "translations": {}
  },
  {
    "id": 2275,
    "name": "Herzogenburg",
    "state_id": 2065,
    "state_code": "3",
    "country_id": 15,
    "country_code": "AT",
    "latitude": "48.28137000",
    "longitude": "15.69431000",
    "native": null,
    "timezone": "Europe/Vienna",
    "translations": {}
  },
  {
    "id": 2281,
    "name": "Himberg",
    "state_id": 2065,
    "state_code": "3",
    "country_id": 15,
    "country_code": "AT",
    "latitude": "48.08333000",
    "longitude": "16.43333000",
    "native": null,
    "timezone": "Europe/Vienna",
    "translations": {}
  },
  {
    "id": 2285,
    "name": "Hinterbrühl",
    "state_id": 2065,
    "state_code": "3",
    "country_id": 15,
    "country_code": "AT",
    "latitude": "48.08611000",
    "longitude": "16.24809000",
    "native": null,
    "timezone": "Europe/Vienna",
    "translations": {}
  },
  {
    "id": 2287,
    "name": "Hinterleiten",
    "state_id": 2065,
    "state_code": "3",
    "country_id": 15,
    "country_code": "AT",
    "latitude": "48.16513000",
    "longitude": "15.96654000",
    "native": null,
    "timezone": "Europe/Vienna",
    "translations": {}
  },
  {
    "id": 2292,
    "name": "Hirschbach",
    "state_id": 2065,
    "state_code": "3",
    "country_id": 15,
    "country_code": "AT",
    "latitude": "48.74329000",
    "longitude": "15.12521000",
    "native": null,
    "timezone": "Europe/Vienna",
    "translations": {}
  },
  {
    "id": 2294,
    "name": "Hirtenberg",
    "state_id": 2065,
    "state_code": "3",
    "country_id": 15,
    "country_code": "AT",
    "latitude": "47.93095000",
    "longitude": "16.17908000",
    "native": null,
    "timezone": "Europe/Vienna",
    "translations": {}
  },
  {
    "id": 2299,
    "name": "Hochleithen",
    "state_id": 2065,
    "state_code": "3",
    "country_id": 15,
    "country_code": "AT",
    "latitude": "48.45317000",
    "longitude": "16.53090000",
    "native": null,
    "timezone": "Europe/Vienna",
    "translations": {}
  },
  {
    "id": 2302,
    "name": "Hochwolkersdorf",
    "state_id": 2065,
    "state_code": "3",
    "country_id": 15,
    "country_code": "AT",
    "latitude": "47.66127000",
    "longitude": "16.28072000",
    "native": null,
    "timezone": "Europe/Vienna",
    "translations": {}
  },
  {
    "id": 2305,
    "name": "Hof am Leithaberge",
    "state_id": 2065,
    "state_code": "3",
    "country_id": 15,
    "country_code": "AT",
    "latitude": "47.95000000",
    "longitude": "16.58333000",
    "native": null,
    "timezone": "Europe/Vienna",
    "translations": {}
  },
  {
    "id": 2308,
    "name": "Hofamt Priel",
    "state_id": 2065,
    "state_code": "3",
    "country_id": 15,
    "country_code": "AT",
    "latitude": "48.19581000",
    "longitude": "15.07746000",
    "native": null,
    "timezone": "Europe/Vienna",
    "translations": {}
  },
  {
    "id": 2339,
    "name": "Höflein",
    "state_id": 2065,
    "state_code": "3",
    "country_id": 15,
    "country_code": "AT",
    "latitude": "48.06667000",
    "longitude": "16.78333000",
    "native": null,
    "timezone": "Europe/Vienna",
    "translations": {}
  },
  {
    "id": 2340,
    "name": "Höfling",
    "state_id": 2065,
    "state_code": "3",
    "country_id": 15,
    "country_code": "AT",
    "latitude": "48.05444000",
    "longitude": "15.03672000",
    "native": null,
    "timezone": "Europe/Vienna",
    "translations": {}
  },
  {
    "id": 2310,
    "name": "Hofstetten",
    "state_id": 2065,
    "state_code": "3",
    "country_id": 15,
    "country_code": "AT",
    "latitude": "48.09711000",
    "longitude": "15.51149000",
    "native": null,
    "timezone": "Europe/Vienna",
    "translations": {}
  },
  {
    "id": 2312,
    "name": "Hohenau",
    "state_id": 2065,
    "state_code": "3",
    "country_id": 15,
    "country_code": "AT",
    "latitude": "48.60420000",
    "longitude": "16.90470000",
    "native": null,
    "timezone": "Europe/Vienna",
    "translations": {}
  },
  {
    "id": 2314,
    "name": "Hohenberg",
    "state_id": 2065,
    "state_code": "3",
    "country_id": 15,
    "country_code": "AT",
    "latitude": "47.90679000",
    "longitude": "15.61998000",
    "native": null,
    "timezone": "Europe/Vienna",
    "translations": {}
  },
  {
    "id": 2315,
    "name": "Hoheneich",
    "state_id": 2065,
    "state_code": "3",
    "country_id": 15,
    "country_code": "AT",
    "latitude": "48.77195000",
    "longitude": "15.02857000",
    "native": null,
    "timezone": "Europe/Vienna",
    "translations": {}
  },
  {
    "id": 2317,
    "name": "Hohenruppersdorf",
    "state_id": 2065,
    "state_code": "3",
    "country_id": 15,
    "country_code": "AT",
    "latitude": "48.46439000",
    "longitude": "16.65244000",
    "native": null,
    "timezone": "Europe/Vienna",
    "translations": {}
  },
  {
    "id": 2321,
    "name": "Hollabrunn",
    "state_id": 2065,
    "state_code": "3",
    "country_id": 15,
    "country_code": "AT",
    "latitude": "48.55000000",
    "longitude": "16.08333000",
    "native": null,
    "timezone": "Europe/Vienna",
    "translations": {}
  },
  {
    "id": 2323,
    "name": "Hollenstein an der Ybbs",
    "state_id": 2065,
    "state_code": "3",
    "country_id": 15,
    "country_code": "AT",
    "latitude": "47.80305000",
    "longitude": "14.77312000",
    "native": null,
    "timezone": "Europe/Vienna",
    "translations": {}
  },
  {
    "id": 2324,
    "name": "Hollenthon",
    "state_id": 2065,
    "state_code": "3",
    "country_id": 15,
    "country_code": "AT",
    "latitude": "47.58938000",
    "longitude": "16.26131000",
    "native": null,
    "timezone": "Europe/Vienna",
    "translations": {}
  },
  {
    "id": 2331,
    "name": "Horn",
    "state_id": 2065,
    "state_code": "3",
    "country_id": 15,
    "country_code": "AT",
    "latitude": "48.66274000",
    "longitude": "15.65663000",
    "native": null,
    "timezone": "Europe/Vienna",
    "translations": {}
  },
  {
    "id": 2333,
    "name": "Hundsheim",
    "state_id": 2065,
    "state_code": "3",
    "country_id": 15,
    "country_code": "AT",
    "latitude": "48.11749000",
    "longitude": "16.93581000",
    "native": null,
    "timezone": "Europe/Vienna",
    "translations": {}
  },
  {
    "id": 2346,
    "name": "Hürm",
    "state_id": 2065,
    "state_code": "3",
    "country_id": 15,
    "country_code": "AT",
    "latitude": "48.15601000",
    "longitude": "15.41262000",
    "native": null,
    "timezone": "Europe/Vienna",
    "translations": {}
  },
  {
    "id": 2334,
    "name": "Hutten",
    "state_id": 2065,
    "state_code": "3",
    "country_id": 15,
    "country_code": "AT",
    "latitude": "48.17856000",
    "longitude": "15.98579000",
    "native": null,
    "timezone": "Europe/Vienna",
    "translations": {}
  },
  {
    "id": 2372,
    "name": "Jaidhof",
    "state_id": 2065,
    "state_code": "3",
    "country_id": 15,
    "country_code": "AT",
    "latitude": "48.53333000",
    "longitude": "15.48333000",
    "native": null,
    "timezone": "Europe/Vienna",
    "translations": {}
  },
  {
    "id": 2374,
    "name": "Japons",
    "state_id": 2065,
    "state_code": "3",
    "country_id": 15,
    "country_code": "AT",
    "latitude": "48.79250000",
    "longitude": "15.56831000",
    "native": null,
    "timezone": "Europe/Vienna",
    "translations": {}
  },
  {
    "id": 2375,
    "name": "Jedenspeigen",
    "state_id": 2065,
    "state_code": "3",
    "country_id": 15,
    "country_code": "AT",
    "latitude": "48.49807000",
    "longitude": "16.87225000",
    "native": null,
    "timezone": "Europe/Vienna",
    "translations": {}
  },
  {
    "id": 2394,
    "name": "Kaltenleutgeben",
    "state_id": 2065,
    "state_code": "3",
    "country_id": 15,
    "country_code": "AT",
    "latitude": "48.11646000",
    "longitude": "16.19956000",
    "native": null,
    "timezone": "Europe/Vienna",
    "translations": {}
  },
  {
    "id": 2398,
    "name": "Kapelln",
    "state_id": 2065,
    "state_code": "3",
    "country_id": 15,
    "country_code": "AT",
    "latitude": "48.25817000",
    "longitude": "15.75731000",
    "native": null,
    "timezone": "Europe/Vienna",
    "translations": {}
  },
  {
    "id": 2405,
    "name": "Karlstetten",
    "state_id": 2065,
    "state_code": "3",
    "country_id": 15,
    "country_code": "AT",
    "latitude": "48.25920000",
    "longitude": "15.56544000",
    "native": null,
    "timezone": "Europe/Vienna",
    "translations": {}
  },
  {
    "id": 2409,
    "name": "Kasten bei Böheimkirchen",
    "state_id": 2065,
    "state_code": "3",
    "country_id": 15,
    "country_code": "AT",
    "latitude": "48.15320000",
    "longitude": "15.77946000",
    "native": null,
    "timezone": "Europe/Vienna",
    "translations": {}
  },
  {
    "id": 2411,
    "name": "Katzelsdorf",
    "state_id": 2065,
    "state_code": "3",
    "country_id": 15,
    "country_code": "AT",
    "latitude": "47.78055000",
    "longitude": "16.26985000",
    "native": null,
    "timezone": "Europe/Vienna",
    "translations": {}
  },
  {
    "id": 2412,
    "name": "Kaumberg",
    "state_id": 2065,
    "state_code": "3",
    "country_id": 15,
    "country_code": "AT",
    "latitude": "48.02415000",
    "longitude": "15.89842000",
    "native": null,
    "timezone": "Europe/Vienna",
    "translations": {}
  },
  {
    "id": 2414,
    "name": "Kautzen",
    "state_id": 2065,
    "state_code": "3",
    "country_id": 15,
    "country_code": "AT",
    "latitude": "48.93000000",
    "longitude": "15.23932000",
    "native": null,
    "timezone": "Europe/Vienna",
    "translations": {}
  },
  {
    "id": 2416,
    "name": "Kematen an der Ybbs",
    "state_id": 2065,
    "state_code": "3",
    "country_id": 15,
    "country_code": "AT",
    "latitude": "48.02541000",
    "longitude": "14.76468000",
    "native": null,
    "timezone": "Europe/Vienna",
    "translations": {}
  },
  {
    "id": 2421,
    "name": "Kierling",
    "state_id": 2065,
    "state_code": "3",
    "country_id": 15,
    "country_code": "AT",
    "latitude": "48.30997000",
    "longitude": "16.27616000",
    "native": null,
    "timezone": "Europe/Vienna",
    "translations": {}
  },
  {
    "id": 2422,
    "name": "Kilb",
    "state_id": 2065,
    "state_code": "3",
    "country_id": 15,
    "country_code": "AT",
    "latitude": "48.10101000",
    "longitude": "15.40850000",
    "native": null,
    "timezone": "Europe/Vienna",
    "translations": {}
  },
  {
    "id": 2426,
    "name": "Kirchberg am Wagram",
    "state_id": 2065,
    "state_code": "3",
    "country_id": 15,
    "country_code": "AT",
    "latitude": "48.43182000",
    "longitude": "15.89692000",
    "native": null,
    "timezone": "Europe/Vienna",
    "translations": {}
  },
  {
    "id": 2427,
    "name": "Kirchberg am Walde",
    "state_id": 2065,
    "state_code": "3",
    "country_id": 15,
    "country_code": "AT",
    "latitude": "48.72477000",
    "longitude": "15.08826000",
    "native": null,
    "timezone": "Europe/Vienna",
    "translations": {}
  },
  {
    "id": 2428,
    "name": "Kirchberg am Wechsel",
    "state_id": 2065,
    "state_code": "3",
    "country_id": 15,
    "country_code": "AT",
    "latitude": "47.60738000",
    "longitude": "15.99103000",
    "native": null,
    "timezone": "Europe/Vienna",
    "translations": {}
  },
  {
    "id": 2429,
    "name": "Kirchberg an der Pielach",
    "state_id": 2065,
    "state_code": "3",
    "country_id": 15,
    "country_code": "AT",
    "latitude": "48.02690000",
    "longitude": "15.42875000",
    "native": null,
    "timezone": "Europe/Vienna",
    "translations": {}
  },
  {
    "id": 2437,
    "name": "Kirchschlag",
    "state_id": 2065,
    "state_code": "3",
    "country_id": 15,
    "country_code": "AT",
    "latitude": "48.39345000",
    "longitude": "15.22285000",
    "native": null,
    "timezone": "Europe/Vienna",
    "translations": {}
  },
  {
    "id": 2439,
    "name": "Kirchschlag in der Buckligen Welt",
    "state_id": 2065,
    "state_code": "3",
    "country_id": 15,
    "country_code": "AT",
    "latitude": "47.50000000",
    "longitude": "16.28333000",
    "native": null,
    "timezone": "Europe/Vienna",
    "translations": {}
  },
  {
    "id": 2440,
    "name": "Kirchstetten",
    "state_id": 2065,
    "state_code": "3",
    "country_id": 15,
    "country_code": "AT",
    "latitude": "48.18333000",
    "longitude": "15.81667000",
    "native": null,
    "timezone": "Europe/Vienna",
    "translations": {}
  },
  {
    "id": 2441,
    "name": "Kirnberg an der Mank",
    "state_id": 2065,
    "state_code": "3",
    "country_id": 15,
    "country_code": "AT",
    "latitude": "48.07246000",
    "longitude": "15.32232000",
    "native": null,
    "timezone": "Europe/Vienna",
    "translations": {}
  },
  {
    "id": 2448,
    "name": "Klausen-Leopoldsdorf",
    "state_id": 2065,
    "state_code": "3",
    "country_id": 15,
    "country_code": "AT",
    "latitude": "48.08771000",
    "longitude": "16.01686000",
    "native": null,
    "timezone": "Europe/Vienna",
    "translations": {}
  },
  {
    "id": 2450,
    "name": "Klein-Neusiedl",
    "state_id": 2065,
    "state_code": "3",
    "country_id": 15,
    "country_code": "AT",
    "latitude": "48.09379000",
    "longitude": "16.60661000",
    "native": null,
    "timezone": "Europe/Vienna",
    "translations": {}
  },
  {
    "id": 2451,
    "name": "Klein-Pöchlarn",
    "state_id": 2065,
    "state_code": "3",
    "country_id": 15,
    "country_code": "AT",
    "latitude": "48.21667000",
    "longitude": "15.21667000",
    "native": null,
    "timezone": "Europe/Vienna",
    "translations": {}
  },
  {
    "id": 2459,
    "name": "Kleinzell",
    "state_id": 2065,
    "state_code": "3",
    "country_id": 15,
    "country_code": "AT",
    "latitude": "47.97993000",
    "longitude": "15.73620000",
    "native": null,
    "timezone": "Europe/Vienna",
    "translations": {}
  },
  {
    "id": 2462,
    "name": "Klosterneuburg",
    "state_id": 2065,
    "state_code": "3",
    "country_id": 15,
    "country_code": "AT",
    "latitude": "48.30521000",
    "longitude": "16.32522000",
    "native": null,
    "timezone": "Europe/Vienna",
    "translations": {}
  },
  {
    "id": 2510,
    "name": "Königstetten",
    "state_id": 2065,
    "state_code": "3",
    "country_id": 15,
    "country_code": "AT",
    "latitude": "48.30198000",
    "longitude": "16.14492000",
    "native": null,
    "timezone": "Europe/Vienna",
    "translations": {}
  },
  {
    "id": 2476,
    "name": "Korneuburg",
    "state_id": 2065,
    "state_code": "3",
    "country_id": 15,
    "country_code": "AT",
    "latitude": "48.35000000",
    "longitude": "16.33333000",
    "native": null,
    "timezone": "Europe/Vienna",
    "translations": {}
  },
  {
    "id": 2477,
    "name": "Kottingbrunn",
    "state_id": 2065,
    "state_code": "3",
    "country_id": 15,
    "country_code": "AT",
    "latitude": "47.95096000",
    "longitude": "16.22715000",
    "native": null,
    "timezone": "Europe/Vienna",
    "translations": {}
  },
  {
    "id": 2483,
    "name": "Krems an der Donau",
    "state_id": 2065,
    "state_code": "3",
    "country_id": 15,
    "country_code": "AT",
    "latitude": "48.40921000",
    "longitude": "15.61415000",
    "native": null,
    "timezone": "Europe/Vienna",
    "translations": {}
  },
  {
    "id": 2484,
    "name": "Krems an der Donau Stadt",
    "state_id": 2065,
    "state_code": "3",
    "country_id": 15,
    "country_code": "AT",
    "latitude": "48.41040000",
    "longitude": "15.60574000",
    "native": null,
    "timezone": "Europe/Vienna",
    "translations": {}
  },
  {
    "id": 2491,
    "name": "Kritzendorf",
    "state_id": 2065,
    "state_code": "3",
    "country_id": 15,
    "country_code": "AT",
    "latitude": "48.32932000",
    "longitude": "16.30011000",
    "native": null,
    "timezone": "Europe/Vienna",
    "translations": {}
  },
  {
    "id": 2495,
    "name": "Krumau am Kamp",
    "state_id": 2065,
    "state_code": "3",
    "country_id": 15,
    "country_code": "AT",
    "latitude": "48.58879000",
    "longitude": "15.44914000",
    "native": null,
    "timezone": "Europe/Vienna",
    "translations": {}
  },
  {
    "id": 2497,
    "name": "Krumbach Markt",
    "state_id": 2065,
    "state_code": "3",
    "country_id": 15,
    "country_code": "AT",
    "latitude": "47.51667000",
    "longitude": "16.18333000",
    "native": null,
    "timezone": "Europe/Vienna",
    "translations": {}
  },
  {
    "id": 2499,
    "name": "Krumnussbaum",
    "state_id": 2065,
    "state_code": "3",
    "country_id": 15,
    "country_code": "AT",
    "latitude": "48.20877000",
    "longitude": "15.16212000",
    "native": null,
    "timezone": "Europe/Vienna",
    "translations": {}
  },
  {
    "id": 2517,
    "name": "Laa an der Thaya",
    "state_id": 2065,
    "state_code": "3",
    "country_id": 15,
    "country_code": "AT",
    "latitude": "48.71667000",
    "longitude": "16.38333000",
    "native": null,
    "timezone": "Europe/Vienna",
    "translations": {}
  },
  {
    "id": 2519,
    "name": "Laab im Walde",
    "state_id": 2065,
    "state_code": "3",
    "country_id": 15,
    "country_code": "AT",
    "latitude": "48.15486000",
    "longitude": "16.17359000",
    "native": null,
    "timezone": "Europe/Vienna",
    "translations": {}
  },
  {
    "id": 2525,
    "name": "Ladendorf",
    "state_id": 2065,
    "state_code": "3",
    "country_id": 15,
    "country_code": "AT",
    "latitude": "48.53333000",
    "longitude": "16.48333000",
    "native": null,
    "timezone": "Europe/Vienna",
    "translations": {}
  },
  {
    "id": 2531,
    "name": "Landegg",
    "state_id": 2065,
    "state_code": "3",
    "country_id": 15,
    "country_code": "AT",
    "latitude": "47.90000000",
    "longitude": "16.40000000",
    "native": null,
    "timezone": "Europe/Vienna",
    "translations": {}
  },
  {
    "id": 2535,
    "name": "Langau",
    "state_id": 2065,
    "state_code": "3",
    "country_id": 15,
    "country_code": "AT",
    "latitude": "48.83207000",
    "longitude": "15.71560000",
    "native": null,
    "timezone": "Europe/Vienna",
    "translations": {}
  },
  {
    "id": 2539,
    "name": "Langenlebarn-Oberaigen",
    "state_id": 2065,
    "state_code": "3",
    "country_id": 15,
    "country_code": "AT",
    "latitude": "48.33023000",
    "longitude": "16.11059000",
    "native": null,
    "timezone": "Europe/Vienna",
    "translations": {}
  },
  {
    "id": 2540,
    "name": "Langenlois",
    "state_id": 2065,
    "state_code": "3",
    "country_id": 15,
    "country_code": "AT",
    "latitude": "48.46667000",
    "longitude": "15.66667000",
    "native": null,
    "timezone": "Europe/Vienna",
    "translations": {}
  },
  {
    "id": 2541,
    "name": "Langenrohr",
    "state_id": 2065,
    "state_code": "3",
    "country_id": 15,
    "country_code": "AT",
    "latitude": "48.30489000",
    "longitude": "16.01034000",
    "native": null,
    "timezone": "Europe/Vienna",
    "translations": {}
  },
  {
    "id": 2544,
    "name": "Langenzersdorf",
    "state_id": 2065,
    "state_code": "3",
    "country_id": 15,
    "country_code": "AT",
    "latitude": "48.30432000",
    "longitude": "16.36143000",
    "native": null,
    "timezone": "Europe/Vienna",
    "translations": {}
  },
  {
    "id": 2546,
    "name": "Langschlag",
    "state_id": 2065,
    "state_code": "3",
    "country_id": 15,
    "country_code": "AT",
    "latitude": "48.57448000",
    "longitude": "14.88459000",
    "native": null,
    "timezone": "Europe/Vienna",
    "translations": {}
  },
  {
    "id": 2549,
    "name": "Lanzendorf",
    "state_id": 2065,
    "state_code": "3",
    "country_id": 15,
    "country_code": "AT",
    "latitude": "48.11056000",
    "longitude": "16.44500000",
    "native": null,
    "timezone": "Europe/Vienna",
    "translations": {}
  },
  {
    "id": 2550,
    "name": "Lanzenkirchen",
    "state_id": 2065,
    "state_code": "3",
    "country_id": 15,
    "country_code": "AT",
    "latitude": "47.73621000",
    "longitude": "16.21985000",
    "native": null,
    "timezone": "Europe/Vienna",
    "translations": {}
  },
  {
    "id": 2551,
    "name": "Lassee",
    "state_id": 2065,
    "state_code": "3",
    "country_id": 15,
    "country_code": "AT",
    "latitude": "48.22479000",
    "longitude": "16.82230000",
    "native": null,
    "timezone": "Europe/Vienna",
    "translations": {}
  },
  {
    "id": 2558,
    "name": "Laxenburg",
    "state_id": 2065,
    "state_code": "3",
    "country_id": 15,
    "country_code": "AT",
    "latitude": "48.06833000",
    "longitude": "16.35607000",
    "native": null,
    "timezone": "Europe/Vienna",
    "translations": {}
  },
  {
    "id": 2563,
    "name": "Leiben",
    "state_id": 2065,
    "state_code": "3",
    "country_id": 15,
    "country_code": "AT",
    "latitude": "48.24628000",
    "longitude": "15.27460000",
    "native": null,
    "timezone": "Europe/Vienna",
    "translations": {}
  },
  {
    "id": 2570,
    "name": "Leitzersdorf",
    "state_id": 2065,
    "state_code": "3",
    "country_id": 15,
    "country_code": "AT",
    "latitude": "48.41918000",
    "longitude": "16.24513000",
    "native": null,
    "timezone": "Europe/Vienna",
    "translations": {}
  },
  {
    "id": 2575,
    "name": "Lengenfeld",
    "state_id": 2065,
    "state_code": "3",
    "country_id": 15,
    "country_code": "AT",
    "latitude": "48.47187000",
    "longitude": "15.59870000",
    "native": null,
    "timezone": "Europe/Vienna",
    "translations": {}
  },
  {
    "id": 2579,
    "name": "Leobendorf",
    "state_id": 2065,
    "state_code": "3",
    "country_id": 15,
    "country_code": "AT",
    "latitude": "48.38333000",
    "longitude": "16.31667000",
    "native": null,
    "timezone": "Europe/Vienna",
    "translations": {}
  },
  {
    "id": 2580,
    "name": "Leobersdorf",
    "state_id": 2065,
    "state_code": "3",
    "country_id": 15,
    "country_code": "AT",
    "latitude": "47.92796000",
    "longitude": "16.21651000",
    "native": null,
    "timezone": "Europe/Vienna",
    "translations": {}
  },
  {
    "id": 2584,
    "name": "Leopoldsdorf",
    "state_id": 2065,
    "state_code": "3",
    "country_id": 15,
    "country_code": "AT",
    "latitude": "48.11557000",
    "longitude": "16.39126000",
    "native": null,
    "timezone": "Europe/Vienna",
    "translations": {}
  },
  {
    "id": 2585,
    "name": "Leopoldsdorf im Marchfelde",
    "state_id": 2065,
    "state_code": "3",
    "country_id": 15,
    "country_code": "AT",
    "latitude": "48.22261000",
    "longitude": "16.68858000",
    "native": null,
    "timezone": "Europe/Vienna",
    "translations": {}
  },
  {
    "id": 2586,
    "name": "Lerchenfeld",
    "state_id": 2065,
    "state_code": "3",
    "country_id": 15,
    "country_code": "AT",
    "latitude": "48.41234000",
    "longitude": "15.63183000",
    "native": null,
    "timezone": "Europe/Vienna",
    "translations": {}
  },
  {
    "id": 2590,
    "name": "Lichtenegg",
    "state_id": 2065,
    "state_code": "3",
    "country_id": 15,
    "country_code": "AT",
    "latitude": "47.60000000",
    "longitude": "16.20000000",
    "native": null,
    "timezone": "Europe/Vienna",
    "translations": {}
  },
  {
    "id": 2592,
    "name": "Lichtenwörth",
    "state_id": 2065,
    "state_code": "3",
    "country_id": 15,
    "country_code": "AT",
    "latitude": "47.82756000",
    "longitude": "16.29873000",
    "native": null,
    "timezone": "Europe/Vienna",
    "translations": {}
  },
  {
    "id": 2600,
    "name": "Lilienfeld",
    "state_id": 2065,
    "state_code": "3",
    "country_id": 15,
    "country_code": "AT",
    "latitude": "48.01312000",
    "longitude": "15.59664000",
    "native": null,
    "timezone": "Europe/Vienna",
    "translations": {}
  },
  {
    "id": 2605,
    "name": "Litschau",
    "state_id": 2065,
    "state_code": "3",
    "country_id": 15,
    "country_code": "AT",
    "latitude": "48.94409000",
    "longitude": "15.04483000",
    "native": null,
    "timezone": "Europe/Vienna",
    "translations": {}
  },
  {
    "id": 2610,
    "name": "Loich",
    "state_id": 2065,
    "state_code": "3",
    "country_id": 15,
    "country_code": "AT",
    "latitude": "47.99578000",
    "longitude": "15.40163000",
    "native": null,
    "timezone": "Europe/Vienna",
    "translations": {}
  },
  {
    "id": 2613,
    "name": "Loosdorf",
    "state_id": 2065,
    "state_code": "3",
    "country_id": 15,
    "country_code": "AT",
    "latitude": "48.20000000",
    "longitude": "15.40000000",
    "native": null,
    "timezone": "Europe/Vienna",
    "translations": {}
  },
  {
    "id": 2620,
    "name": "Lunz am See",
    "state_id": 2065,
    "state_code": "3",
    "country_id": 15,
    "country_code": "AT",
    "latitude": "47.86120000",
    "longitude": "15.02998000",
    "native": null,
    "timezone": "Europe/Vienna",
    "translations": {}
  },
  {
    "id": 2626,
    "name": "Mailberg",
    "state_id": 2065,
    "state_code": "3",
    "country_id": 15,
    "country_code": "AT",
    "latitude": "48.67379000",
    "longitude": "16.18132000",
    "native": null,
    "timezone": "Europe/Vienna",
    "translations": {}
  },
  {
    "id": 2628,
    "name": "Maissau",
    "state_id": 2065,
    "state_code": "3",
    "country_id": 15,
    "country_code": "AT",
    "latitude": "48.57300000",
    "longitude": "15.83005000",
    "native": null,
    "timezone": "Europe/Vienna",
    "translations": {}
  },
  {
    "id": 2629,
    "name": "Mank",
    "state_id": 2065,
    "state_code": "3",
    "country_id": 15,
    "country_code": "AT",
    "latitude": "48.11024000",
    "longitude": "15.33915000",
    "native": null,
    "timezone": "Europe/Vienna",
    "translations": {}
  },
  {
    "id": 2630,
    "name": "Mannersdorf am Leithagebirge",
    "state_id": 2065,
    "state_code": "3",
    "country_id": 15,
    "country_code": "AT",
    "latitude": "47.96667000",
    "longitude": "16.60000000",
    "native": null,
    "timezone": "Europe/Vienna",
    "translations": {}
  },
  {
    "id": 2633,
    "name": "Mannsdorf an der Donau",
    "state_id": 2065,
    "state_code": "3",
    "country_id": 15,
    "country_code": "AT",
    "latitude": "48.15200000",
    "longitude": "16.66506000",
    "native": null,
    "timezone": "Europe/Vienna",
    "translations": {}
  },
  {
    "id": 2634,
    "name": "Mannswörth",
    "state_id": 2065,
    "state_code": "3",
    "country_id": 15,
    "country_code": "AT",
    "latitude": "48.14547000",
    "longitude": "16.51374000",
    "native": null,
    "timezone": "Europe/Vienna",
    "translations": {}
  },
  {
    "id": 2635,
    "name": "Marbach an der Donau",
    "state_id": 2065,
    "state_code": "3",
    "country_id": 15,
    "country_code": "AT",
    "latitude": "48.21667000",
    "longitude": "15.15000000",
    "native": null,
    "timezone": "Europe/Vienna",
    "translations": {}
  },
  {
    "id": 2636,
    "name": "Marchegg",
    "state_id": 2065,
    "state_code": "3",
    "country_id": 15,
    "country_code": "AT",
    "latitude": "48.26217000",
    "longitude": "16.91045000",
    "native": null,
    "timezone": "Europe/Vienna",
    "translations": {}
  },
  {
    "id": 2638,
    "name": "Margarethen am Moos",
    "state_id": 2065,
    "state_code": "3",
    "country_id": 15,
    "country_code": "AT",
    "latitude": "48.03333000",
    "longitude": "16.60000000",
    "native": null,
    "timezone": "Europe/Vienna",
    "translations": {}
  },
  {
    "id": 2640,
    "name": "Maria Ellend",
    "state_id": 2065,
    "state_code": "3",
    "country_id": 15,
    "country_code": "AT",
    "latitude": "48.10000000",
    "longitude": "16.68333000",
    "native": null,
    "timezone": "Europe/Vienna",
    "translations": {}
  },
  {
    "id": 2641,
    "name": "Maria Enzersdorf",
    "state_id": 2065,
    "state_code": "3",
    "country_id": 15,
    "country_code": "AT",
    "latitude": "48.10000000",
    "longitude": "16.28333000",
    "native": null,
    "timezone": "Europe/Vienna",
    "translations": {}
  },
  {
    "id": 2642,
    "name": "Maria Laach am Jauerling",
    "state_id": 2065,
    "state_code": "3",
    "country_id": 15,
    "country_code": "AT",
    "latitude": "48.30412000",
    "longitude": "15.34472000",
    "native": null,
    "timezone": "Europe/Vienna",
    "translations": {}
  },
  {
    "id": 2644,
    "name": "Maria Lanzendorf",
    "state_id": 2065,
    "state_code": "3",
    "country_id": 15,
    "country_code": "AT",
    "latitude": "48.09923000",
    "longitude": "16.41984000",
    "native": null,
    "timezone": "Europe/Vienna",
    "translations": {}
  },
  {
    "id": 2649,
    "name": "Maria Taferl",
    "state_id": 2065,
    "state_code": "3",
    "country_id": 15,
    "country_code": "AT",
    "latitude": "48.22702000",
    "longitude": "15.15954000",
    "native": null,
    "timezone": "Europe/Vienna",
    "translations": {}
  },
  {
    "id": 2651,
    "name": "Maria-Anzbach",
    "state_id": 2065,
    "state_code": "3",
    "country_id": 15,
    "country_code": "AT",
    "latitude": "48.19012000",
    "longitude": "15.93155000",
    "native": null,
    "timezone": "Europe/Vienna",
    "translations": {}
  },
  {
    "id": 2659,
    "name": "Markersdorf an der Pielach",
    "state_id": 2065,
    "state_code": "3",
    "country_id": 15,
    "country_code": "AT",
    "latitude": "48.18333000",
    "longitude": "15.50000000",
    "native": null,
    "timezone": "Europe/Vienna",
    "translations": {}
  },
  {
    "id": 2660,
    "name": "Markgrafneusiedl",
    "state_id": 2065,
    "state_code": "3",
    "country_id": 15,
    "country_code": "AT",
    "latitude": "48.26667000",
    "longitude": "16.63333000",
    "native": null,
    "timezone": "Europe/Vienna",
    "translations": {}
  },
  {
    "id": 2663,
    "name": "Markt Piesting",
    "state_id": 2065,
    "state_code": "3",
    "country_id": 15,
    "country_code": "AT",
    "latitude": "47.87358000",
    "longitude": "16.12510000",
    "native": null,
    "timezone": "Europe/Vienna",
    "translations": {}
  },
  {
    "id": 2665,
    "name": "Martinsberg",
    "state_id": 2065,
    "state_code": "3",
    "country_id": 15,
    "country_code": "AT",
    "latitude": "48.37549000",
    "longitude": "15.14997000",
    "native": null,
    "timezone": "Europe/Vienna",
    "translations": {}
  },
  {
    "id": 2672,
    "name": "Matzen",
    "state_id": 2065,
    "state_code": "3",
    "country_id": 15,
    "country_code": "AT",
    "latitude": "48.40000000",
    "longitude": "16.70000000",
    "native": null,
    "timezone": "Europe/Vienna",
    "translations": {}
  },
  {
    "id": 2673,
    "name": "Matzendorf",
    "state_id": 2065,
    "state_code": "3",
    "country_id": 15,
    "country_code": "AT",
    "latitude": "47.89137000",
    "longitude": "16.21393000",
    "native": null,
    "timezone": "Europe/Vienna",
    "translations": {}
  },
  {
    "id": 2674,
    "name": "Mauer bei Amstetten",
    "state_id": 2065,
    "state_code": "3",
    "country_id": 15,
    "country_code": "AT",
    "latitude": "48.09643000",
    "longitude": "14.80060000",
    "native": null,
    "timezone": "Europe/Vienna",
    "translations": {}
  },
  {
    "id": 2675,
    "name": "Mauerbach",
    "state_id": 2065,
    "state_code": "3",
    "country_id": 15,
    "country_code": "AT",
    "latitude": "48.24514000",
    "longitude": "16.16793000",
    "native": null,
    "timezone": "Europe/Vienna",
    "translations": {}
  },
  {
    "id": 2679,
    "name": "Mautern",
    "state_id": 2065,
    "state_code": "3",
    "country_id": 15,
    "country_code": "AT",
    "latitude": "48.39319000",
    "longitude": "15.57793000",
    "native": null,
    "timezone": "Europe/Vienna",
    "translations": {}
  },
  {
    "id": 2688,
    "name": "Melk",
    "state_id": 2065,
    "state_code": "3",
    "country_id": 15,
    "country_code": "AT",
    "latitude": "48.22737000",
    "longitude": "15.33186000",
    "native": null,
    "timezone": "Europe/Vienna",
    "translations": {}
  },
  {
    "id": 2698,
    "name": "Michelhausen",
    "state_id": 2065,
    "state_code": "3",
    "country_id": 15,
    "country_code": "AT",
    "latitude": "48.29085000",
    "longitude": "15.93893000",
    "native": null,
    "timezone": "Europe/Vienna",
    "translations": {}
  },
  {
    "id": 2701,
    "name": "Miesenbach",
    "state_id": 2065,
    "state_code": "3",
    "country_id": 15,
    "country_code": "AT",
    "latitude": "47.84035000",
    "longitude": "15.98236000",
    "native": null,
    "timezone": "Europe/Vienna",
    "translations": {}
  },
  {
    "id": 2706,
    "name": "Mistelbach",
    "state_id": 2065,
    "state_code": "3",
    "country_id": 15,
    "country_code": "AT",
    "latitude": "48.57000000",
    "longitude": "16.57667000",
    "native": null,
    "timezone": "Europe/Vienna",
    "translations": {}
  },
  {
    "id": 2708,
    "name": "Mitterbach am Erlaufsee",
    "state_id": 2065,
    "state_code": "3",
    "country_id": 15,
    "country_code": "AT",
    "latitude": "47.81396000",
    "longitude": "15.29537000",
    "native": null,
    "timezone": "Europe/Vienna",
    "translations": {}
  },
  {
    "id": 2716,
    "name": "Mitterndorf an der Fischa",
    "state_id": 2065,
    "state_code": "3",
    "country_id": 15,
    "country_code": "AT",
    "latitude": "47.99739000",
    "longitude": "16.47357000",
    "native": null,
    "timezone": "Europe/Vienna",
    "translations": {}
  },
  {
    "id": 2740,
    "name": "Mödling",
    "state_id": 2065,
    "state_code": "3",
    "country_id": 15,
    "country_code": "AT",
    "latitude": "48.08605000",
    "longitude": "16.28921000",
    "native": null,
    "timezone": "Europe/Vienna",
    "translations": {}
  },
  {
    "id": 2744,
    "name": "Möllersdorf",
    "state_id": 2065,
    "state_code": "3",
    "country_id": 15,
    "country_code": "AT",
    "latitude": "48.02575000",
    "longitude": "16.30508000",
    "native": null,
    "timezone": "Europe/Vienna",
    "translations": {}
  },
  {
    "id": 2746,
    "name": "Mönichkirchen",
    "state_id": 2065,
    "state_code": "3",
    "country_id": 15,
    "country_code": "AT",
    "latitude": "47.51062000",
    "longitude": "16.03425000",
    "native": null,
    "timezone": "Europe/Vienna",
    "translations": {}
  },
  {
    "id": 2725,
    "name": "Moosbrunn",
    "state_id": 2065,
    "state_code": "3",
    "country_id": 15,
    "country_code": "AT",
    "latitude": "48.01667000",
    "longitude": "16.45000000",
    "native": null,
    "timezone": "Europe/Vienna",
    "translations": {}
  },
  {
    "id": 2731,
    "name": "Muckendorf an der Donau",
    "state_id": 2065,
    "state_code": "3",
    "country_id": 15,
    "country_code": "AT",
    "latitude": "48.33183000",
    "longitude": "16.15540000",
    "native": null,
    "timezone": "Europe/Vienna",
    "translations": {}
  },
  {
    "id": 2732,
    "name": "Muggendorf",
    "state_id": 2065,
    "state_code": "3",
    "country_id": 15,
    "country_code": "AT",
    "latitude": "47.91059000",
    "longitude": "15.93533000",
    "native": null,
    "timezone": "Europe/Vienna",
    "translations": {}
  },
  {
    "id": 2756,
    "name": "Mühldorf",
    "state_id": 2065,
    "state_code": "3",
    "country_id": 15,
    "country_code": "AT",
    "latitude": "48.37432000",
    "longitude": "15.34672000",
    "native": null,
    "timezone": "Europe/Vienna",
    "translations": {}
  },
  {
    "id": 2761,
    "name": "Münchendorf",
    "state_id": 2065,
    "state_code": "3",
    "country_id": 15,
    "country_code": "AT",
    "latitude": "48.03333000",
    "longitude": "16.38333000",
    "native": null,
    "timezone": "Europe/Vienna",
    "translations": {}
  },
  {
    "id": 2777,
    "name": "Neidling",
    "state_id": 2065,
    "state_code": "3",
    "country_id": 15,
    "country_code": "AT",
    "latitude": "48.24005000",
    "longitude": "15.55591000",
    "native": null,
    "timezone": "Europe/Vienna",
    "translations": {}
  },
  {
    "id": 2783,
    "name": "Neu-Guntramsdorf",
    "state_id": 2065,
    "state_code": "3",
    "country_id": 15,
    "country_code": "AT",
    "latitude": "48.06420000",
    "longitude": "16.31573000",
    "native": null,
    "timezone": "Europe/Vienna",
    "translations": {}
  },
  {
    "id": 2789,
    "name": "Neudorf bei Staatz",
    "state_id": 2065,
    "state_code": "3",
    "country_id": 15,
    "country_code": "AT",
    "latitude": "48.72083000",
    "longitude": "16.49139000",
    "native": null,
    "timezone": "Europe/Vienna",
    "translations": {}
  },
  {
    "id": 2793,
    "name": "Neufurth",
    "state_id": 2065,
    "state_code": "3",
    "country_id": 15,
    "country_code": "AT",
    "latitude": "48.07894000",
    "longitude": "14.81180000",
    "native": null,
    "timezone": "Europe/Vienna",
    "translations": {}
  },
  {
    "id": 2797,
    "name": "Neuhofen an der Ybbs",
    "state_id": 2065,
    "state_code": "3",
    "country_id": 15,
    "country_code": "AT",
    "latitude": "48.05795000",
    "longitude": "14.85489000",
    "native": null,
    "timezone": "Europe/Vienna",
    "translations": {}
  },
  {
    "id": 2803,
    "name": "Neulengbach",
    "state_id": 2065,
    "state_code": "3",
    "country_id": 15,
    "country_code": "AT",
    "latitude": "48.19745000",
    "longitude": "15.90219000",
    "native": null,
    "timezone": "Europe/Vienna",
    "translations": {}
  },
  {
    "id": 2805,
    "name": "Neumarkt an der Ybbs",
    "state_id": 2065,
    "state_code": "3",
    "country_id": 15,
    "country_code": "AT",
    "latitude": "48.14103000",
    "longitude": "15.05758000",
    "native": null,
    "timezone": "Europe/Vienna",
    "translations": {}
  },
  {
    "id": 2809,
    "name": "Neunkirchen",
    "state_id": 2065,
    "state_code": "3",
    "country_id": 15,
    "country_code": "AT",
    "latitude": "47.72096000",
    "longitude": "16.08107000",
    "native": null,
    "timezone": "Europe/Vienna",
    "translations": {}
  },
  {
    "id": 2810,
    "name": "Neusiedl",
    "state_id": 2065,
    "state_code": "3",
    "country_id": 15,
    "country_code": "AT",
    "latitude": "47.88769000",
    "longitude": "15.96313000",
    "native": null,
    "timezone": "Europe/Vienna",
    "translations": {}
  },
  {
    "id": 2812,
    "name": "Neusiedl an der Zaya",
    "state_id": 2065,
    "state_code": "3",
    "country_id": 15,
    "country_code": "AT",
    "latitude": "48.59920000",
    "longitude": "16.77990000",
    "native": null,
    "timezone": "Europe/Vienna",
    "translations": {}
  },
  {
    "id": 2824,
    "name": "Niederhollabrunn",
    "state_id": 2065,
    "state_code": "3",
    "country_id": 15,
    "country_code": "AT",
    "latitude": "48.43333000",
    "longitude": "16.30000000",
    "native": null,
    "timezone": "Europe/Vienna",
    "translations": {}
  },
  {
    "id": 2825,
    "name": "Niederleis",
    "state_id": 2065,
    "state_code": "3",
    "country_id": 15,
    "country_code": "AT",
    "latitude": "48.55000000",
    "longitude": "16.40000000",
    "native": null,
    "timezone": "Europe/Vienna",
    "translations": {}
  },
  {
    "id": 2839,
    "name": "Nöchling",
    "state_id": 2065,
    "state_code": "3",
    "country_id": 15,
    "country_code": "AT",
    "latitude": "48.22433000",
    "longitude": "14.98123000",
    "native": null,
    "timezone": "Europe/Vienna",
    "translations": {}
  },
  {
    "id": 2843,
    "name": "Ober-Grafendorf",
    "state_id": 2065,
    "state_code": "3",
    "country_id": 15,
    "country_code": "AT",
    "latitude": "48.15040000",
    "longitude": "15.54531000",
    "native": null,
    "timezone": "Europe/Vienna",
    "translations": {}
  },
  {
    "id": 2854,
    "name": "Oberhausen",
    "state_id": 2065,
    "state_code": "3",
    "country_id": 15,
    "country_code": "AT",
    "latitude": "48.17690000",
    "longitude": "16.58506000",
    "native": null,
    "timezone": "Europe/Vienna",
    "translations": {}
  },
  {
    "id": 2863,
    "name": "Oberndorf an der Melk",
    "state_id": 2065,
    "state_code": "3",
    "country_id": 15,
    "country_code": "AT",
    "latitude": "48.06386000",
    "longitude": "15.22430000",
    "native": null,
    "timezone": "Europe/Vienna",
    "translations": {}
  },
  {
    "id": 2867,
    "name": "Oberndorf in der Ebene",
    "state_id": 2065,
    "state_code": "3",
    "country_id": 15,
    "country_code": "AT",
    "latitude": "48.27040000",
    "longitude": "15.68985000",
    "native": null,
    "timezone": "Europe/Vienna",
    "translations": {}
  },
  {
    "id": 2874,
    "name": "Obersdorf",
    "state_id": 2065,
    "state_code": "3",
    "country_id": 15,
    "country_code": "AT",
    "latitude": "48.36667000",
    "longitude": "16.51667000",
    "native": null,
    "timezone": "Europe/Vienna",
    "translations": {}
  },
  {
    "id": 2875,
    "name": "Obersiebenbrunn",
    "state_id": 2065,
    "state_code": "3",
    "country_id": 15,
    "country_code": "AT",
    "latitude": "48.26537000",
    "longitude": "16.71076000",
    "native": null,
    "timezone": "Europe/Vienna",
    "translations": {}
  },
  {
    "id": 2881,
    "name": "Oberwagram",
    "state_id": 2065,
    "state_code": "3",
    "country_id": 15,
    "country_code": "AT",
    "latitude": "48.20157000",
    "longitude": "15.64917000",
    "native": null,
    "timezone": "Europe/Vienna",
    "translations": {}
  },
  {
    "id": 2882,
    "name": "Oberwaltersdorf",
    "state_id": 2065,
    "state_code": "3",
    "country_id": 15,
    "country_code": "AT",
    "latitude": "47.97567000",
    "longitude": "16.32191000",
    "native": null,
    "timezone": "Europe/Vienna",
    "translations": {}
  },
  {
    "id": 2886,
    "name": "Oberwölbling",
    "state_id": 2065,
    "state_code": "3",
    "country_id": 15,
    "country_code": "AT",
    "latitude": "48.31719000",
    "longitude": "15.59166000",
    "native": null,
    "timezone": "Europe/Vienna",
    "translations": {}
  },
  {
    "id": 2891,
    "name": "Oehling",
    "state_id": 2065,
    "state_code": "3",
    "country_id": 15,
    "country_code": "AT",
    "latitude": "48.10000000",
    "longitude": "14.80000000",
    "native": null,
    "timezone": "Europe/Vienna",
    "translations": {}
  },
  {
    "id": 2894,
    "name": "Oeynhausen",
    "state_id": 2065,
    "state_code": "3",
    "country_id": 15,
    "country_code": "AT",
    "latitude": "47.98533000",
    "longitude": "16.29187000",
    "native": null,
    "timezone": "Europe/Vienna",
    "translations": {}
  },
  {
    "id": 2901,
    "name": "Opponitz",
    "state_id": 2065,
    "state_code": "3",
    "country_id": 15,
    "country_code": "AT",
    "latitude": "47.87776000",
    "longitude": "14.82283000",
    "native": null,
    "timezone": "Europe/Vienna",
    "translations": {}
  },
  {
    "id": 2904,
    "name": "Orth an der Donau",
    "state_id": 2065,
    "state_code": "3",
    "country_id": 15,
    "country_code": "AT",
    "latitude": "48.14524000",
    "longitude": "16.70089000",
    "native": null,
    "timezone": "Europe/Vienna",
    "translations": {}
  },
  {
    "id": 2910,
    "name": "Ottenschlag",
    "state_id": 2065,
    "state_code": "3",
    "country_id": 15,
    "country_code": "AT",
    "latitude": "48.42393000",
    "longitude": "15.21924000",
    "native": null,
    "timezone": "Europe/Vienna",
    "translations": {}
  },
  {
    "id": 2913,
    "name": "Ottenthal",
    "state_id": 2065,
    "state_code": "3",
    "country_id": 15,
    "country_code": "AT",
    "latitude": "48.76100000",
    "longitude": "16.57914000",
    "native": null,
    "timezone": "Europe/Vienna",
    "translations": {}
  },
  {
    "id": 2914,
    "name": "Otterthal",
    "state_id": 2065,
    "state_code": "3",
    "country_id": 15,
    "country_code": "AT",
    "latitude": "47.61667000",
    "longitude": "15.93333000",
    "native": null,
    "timezone": "Europe/Vienna",
    "translations": {}
  },
  {
    "id": 2923,
    "name": "Parbasdorf",
    "state_id": 2065,
    "state_code": "3",
    "country_id": 15,
    "country_code": "AT",
    "latitude": "48.28333000",
    "longitude": "16.60000000",
    "native": null,
    "timezone": "Europe/Vienna",
    "translations": {}
  },
  {
    "id": 2931,
    "name": "Paudorf",
    "state_id": 2065,
    "state_code": "3",
    "country_id": 15,
    "country_code": "AT",
    "latitude": "48.35416000",
    "longitude": "15.61853000",
    "native": null,
    "timezone": "Europe/Vienna",
    "translations": {}
  },
  {
    "id": 2932,
    "name": "Payerbach",
    "state_id": 2065,
    "state_code": "3",
    "country_id": 15,
    "country_code": "AT",
    "latitude": "47.69209000",
    "longitude": "15.86340000",
    "native": null,
    "timezone": "Europe/Vienna",
    "translations": {}
  },
  {
    "id": 2935,
    "name": "Penz",
    "state_id": 2065,
    "state_code": "3",
    "country_id": 15,
    "country_code": "AT",
    "latitude": "48.03333000",
    "longitude": "14.48333000",
    "native": null,
    "timezone": "Europe/Vienna",
    "translations": {}
  },
  {
    "id": 2937,
    "name": "Perchtoldsdorf",
    "state_id": 2065,
    "state_code": "3",
    "country_id": 15,
    "country_code": "AT",
    "latitude": "48.11935000",
    "longitude": "16.26607000",
    "native": null,
    "timezone": "Europe/Vienna",
    "translations": {}
  },
  {
    "id": 2940,
    "name": "Pernegg",
    "state_id": 2065,
    "state_code": "3",
    "country_id": 15,
    "country_code": "AT",
    "latitude": "48.73333000",
    "longitude": "15.61667000",
    "native": null,
    "timezone": "Europe/Vienna",
    "translations": {}
  },
  {
    "id": 2942,
    "name": "Pernersdorf",
    "state_id": 2065,
    "state_code": "3",
    "country_id": 15,
    "country_code": "AT",
    "latitude": "48.70000000",
    "longitude": "16.01667000",
    "native": null,
    "timezone": "Europe/Vienna",
    "translations": {}
  },
  {
    "id": 2943,
    "name": "Pernitz",
    "state_id": 2065,
    "state_code": "3",
    "country_id": 15,
    "country_code": "AT",
    "latitude": "47.89759000",
    "longitude": "15.96022000",
    "native": null,
    "timezone": "Europe/Vienna",
    "translations": {}
  },
  {
    "id": 2944,
    "name": "Persenbeug",
    "state_id": 2065,
    "state_code": "3",
    "country_id": 15,
    "country_code": "AT",
    "latitude": "48.18733000",
    "longitude": "15.08809000",
    "native": null,
    "timezone": "Europe/Vienna",
    "translations": {}
  },
  {
    "id": 2947,
    "name": "Petronell-Carnuntum",
    "state_id": 2065,
    "state_code": "3",
    "country_id": 15,
    "country_code": "AT",
    "latitude": "48.11296000",
    "longitude": "16.86582000",
    "native": null,
    "timezone": "Europe/Vienna",
    "translations": {}
  },
  {
    "id": 2951,
    "name": "Petzenkirchen",
    "state_id": 2065,
    "state_code": "3",
    "country_id": 15,
    "country_code": "AT",
    "latitude": "48.14693000",
    "longitude": "15.15465000",
    "native": null,
    "timezone": "Europe/Vienna",
    "translations": {}
  },
  {
    "id": 2955,
    "name": "Pfaffstätten",
    "state_id": 2065,
    "state_code": "3",
    "country_id": 15,
    "country_code": "AT",
    "latitude": "48.01737000",
    "longitude": "16.26354000",
    "native": null,
    "timezone": "Europe/Vienna",
    "translations": {}
  },
  {
    "id": 2970,
    "name": "Pillichsdorf",
    "state_id": 2065,
    "state_code": "3",
    "country_id": 15,
    "country_code": "AT",
    "latitude": "48.35000000",
    "longitude": "16.53333000",
    "native": null,
    "timezone": "Europe/Vienna",
    "translations": {}
  },
  {
    "id": 2980,
    "name": "Pitten",
    "state_id": 2065,
    "state_code": "3",
    "country_id": 15,
    "country_code": "AT",
    "latitude": "47.71667000",
    "longitude": "16.18333000",
    "native": null,
    "timezone": "Europe/Vienna",
    "translations": {}
  },
  {
    "id": 3103,
    "name": "Pöchlarn",
    "state_id": 2065,
    "state_code": "3",
    "country_id": 15,
    "country_code": "AT",
    "latitude": "48.20000000",
    "longitude": "15.20000000",
    "native": null,
    "timezone": "Europe/Vienna",
    "translations": {}
  },
  {
    "id": 3104,
    "name": "Pöggstall",
    "state_id": 2065,
    "state_code": "3",
    "country_id": 15,
    "country_code": "AT",
    "latitude": "48.31734000",
    "longitude": "15.20405000",
    "native": null,
    "timezone": "Europe/Vienna",
    "translations": {}
  },
  {
    "id": 2987,
    "name": "Politischer Bezirk Amstetten",
    "state_id": 2065,
    "state_code": "3",
    "country_id": 15,
    "country_code": "AT",
    "latitude": "48.00000000",
    "longitude": "14.76667000",
    "native": null,
    "timezone": "Europe/Vienna",
    "translations": {}
  },
  {
    "id": 2988,
    "name": "Politischer Bezirk Baden",
    "state_id": 2065,
    "state_code": "3",
    "country_id": 15,
    "country_code": "AT",
    "latitude": "47.97729000",
    "longitude": "16.19845000",
    "native": null,
    "timezone": "Europe/Vienna",
    "translations": {}
  },