[
  {
    "id": 645,
    "name": "Aldea San Antonio",
    "state_id": 3654,
    "state_code": "E",
    "country_id": 11,
    "country_code": "AR",
    "latitude": "-32.62317000",
    "longitude": "-58.70512000",
    "native": null,
    "timezone": "America/Argentina/Buenos_Aires",
    "translations": {}
  },
  {
    "id": 665,
    "name": "Aranguren",
    "state_id": 3654,
    "state_code": "E",
    "country_id": 11,
    "country_code": "AR",
    "latitude": "-32.24252000",
    "longitude": "-60.16107000",
    "native": null,
    "timezone": "America/Argentina/Buenos_Aires",
    "translations": {}
  },
  {
    "id": 700,
    "name": "Bovril",
    "state_id": 3654,
    "state_code": "E",
    "country_id": 11,
    "country_code": "AR",
    "latitude": "-31.34311000",
    "longitude": "-59.44512000",
    "native": null,
    "timezone": "America/Argentina/Buenos_Aires",
    "translations": {}
  },
  {
    "id": 735,
    "name": "Caseros",
    "state_id": 3654,
    "state_code": "E",
    "country_id": 11,
    "country_code": "AR",
    "latitude": "-32.46325000",
    "longitude": "-58.47872000",
    "native": null,
    "timezone": "America/Argentina/Buenos_Aires",
    "translations": {}
  },
  {
    "id": 745,
    "name": "Ceibas",
    "state_id": 3654,
    "state_code": "E",
    "country_id": 11,
    "country_code": "AR",
    "latitude": "-33.43333000",
    "longitude": "-58.75000000",
    "native": null,
    "timezone": "America/Argentina/Buenos_Aires",
    "translations": {}
  },
  {
    "id": 751,
    "name": "Chajarí",
    "state_id": 3654,
    "state_code": "E",
    "country_id": 11,
    "country_code": "AR",
    "latitude": "-30.75048000",
    "longitude": "-57.97962000",
    "native": null,
    "timezone": "America/Argentina/Buenos_Aires",
    "translations": {}
  },
  {
    "id": 783,
    "name": "Colón",
    "state_id": 3654,
    "state_code": "E",
    "country_id": 11,
    "country_code": "AR",
    "latitude": "-32.22312000",
    "longitude": "-58.14426000",
    "native": null,
    "timezone": "America/Argentina/Buenos_Aires",
    "translations": {}
  },
  {
    "id": 779,
    "name": "Colonia Elía",
    "state_id": 3654,
    "state_code": "E",
    "country_id": 11,
    "country_code": "AR",
    "latitude": "-32.67144000",
    "longitude": "-58.32538000",
    "native": null,
    "timezone": "America/Argentina/Buenos_Aires",
    "translations": {}
  },
  {
    "id": 792,
    "name": "Concepción del Uruguay",
    "state_id": 3654,
    "state_code": "E",
    "country_id": 11,
    "country_code": "AR",
    "latitude": "-32.48463000",
    "longitude": "-58.23217000",
    "native": null,
    "timezone": "America/Argentina/Buenos_Aires",
    "translations": {}
  },
  {
    "id": 793,
    "name": "Concordia",
    "state_id": 3654,
    "state_code": "E",
    "country_id": 11,
    "country_code": "AR",
    "latitude": "-31.39296000",
    "longitude": "-58.02089000",
    "native": null,
    "timezone": "America/Argentina/Buenos_Aires",
    "translations": {}
  },
  {
    "id": 794,
    "name": "Conscripto Bernardi",
    "state_id": 3654,
    "state_code": "E",
    "country_id": 11,
    "country_code": "AR",
    "latitude": "-31.04837000",
    "longitude": "-59.08435000",
    "native": null,
    "timezone": "America/Argentina/Buenos_Aires",
    "translations": {}
  },
  {
    "id": 808,
    "name": "Crespo",
    "state_id": 3654,
    "state_code": "E",
    "country_id": 11,
    "country_code": "AR",
    "latitude": "-32.02873000",
    "longitude": "-60.30658000",
    "native": null,
    "timezone": "America/Argentina/Buenos_Aires",
    "translations": {}
  },
  {
    "id": 902,
    "name": "Departamento de Gualeguaychú",
    "state_id": 3654,
    "state_code": "E",
    "country_id": 11,
    "country_code": "AR",
    "latitude": "-33.25000000",
    "longitude": "-59.00000000",
    "native": null,
    "timezone": "America/Argentina/Buenos_Aires",
    "translations": {}
  },
  {
    "id": 955,
    "name": "Departamento de Paraná",
    "state_id": 3654,
    "state_code": "E",
    "country_id": 11,
    "country_code": "AR",
    "latitude": "-31.66667000",
    "longitude": "-60.00000000",
    "native": null,
    "timezone": "America/Argentina/Buenos_Aires",
    "translations": {}
  },
  {
    "id": 1040,
    "name": "Diamante",
    "state_id": 3654,
    "state_code": "E",
    "country_id": 11,
    "country_code": "AR",
    "latitude": "-32.06641000",
    "longitude": "-60.63837000",
    "native": null,
    "timezone": "America/Argentina/Buenos_Aires",
    "translations": {}
  },
  {
    "id": 1043,
    "name": "Domínguez",
    "state_id": 3654,
    "state_code": "E",
    "country_id": 11,
    "country_code": "AR",
    "latitude": "-31.98710000",
    "longitude": "-58.96197000",
    "native": null,
    "timezone": "America/Argentina/Buenos_Aires",
    "translations": {}
  },
  {
    "id": 1075,
    "name": "Federación",
    "state_id": 3654,
    "state_code": "E",
    "country_id": 11,
    "country_code": "AR",
    "latitude": "-31.00621000",
    "longitude": "-57.89962000",
    "native": null,
    "timezone": "America/Argentina/Buenos_Aires",
    "translations": {}
  },
  {
    "id": 1076,
    "name": "Federal",
    "state_id": 3654,
    "state_code": "E",
    "country_id": 11,
    "country_code": "AR",
    "latitude": "-30.95465000",
    "longitude": "-58.78326000",
    "native": null,
    "timezone": "America/Argentina/Buenos_Aires",
    "translations": {}
  },
  {
    "id": 1098,
    "name": "General Campos",
    "state_id": 3654,
    "state_code": "E",
    "country_id": 11,
    "country_code": "AR",
    "latitude": "-31.52311000",
    "longitude": "-58.40490000",
    "native": null,
    "timezone": "America/Argentina/Buenos_Aires",
    "translations": {}
  },
  {
    "id": 1104,
    "name": "General Galarza",
    "state_id": 3654,
    "state_code": "E",
    "country_id": 11,
    "country_code": "AR",
    "latitude": "-32.72034000",
    "longitude": "-59.39615000",
    "native": null,
    "timezone": "America/Argentina/Buenos_Aires",
    "translations": {}
  },
  {
    "id": 1110,
    "name": "General Ramírez",
    "state_id": 3654,
    "state_code": "E",
    "country_id": 11,
    "country_code": "AR",
    "latitude": "-32.17601000",
    "longitude": "-60.20079000",
    "native": null,
    "timezone": "America/Argentina/Buenos_Aires",
    "translations": {}
  },
  {
    "id": 1119,
    "name": "Gobernador Mansilla",
    "state_id": 3654,
    "state_code": "E",
    "country_id": 11,
    "country_code": "AR",
    "latitude": "-32.54453000",
    "longitude": "-59.35480000",
    "native": null,
    "timezone": "America/Argentina/Buenos_Aires",
    "translations": {}
  },
  {
    "id": 1126,
    "name": "Gualeguay",
    "state_id": 3654,
    "state_code": "E",
    "country_id": 11,
    "country_code": "AR",
    "latitude": "-33.14156000",
    "longitude": "-59.30966000",
    "native": null,
    "timezone": "America/Argentina/Buenos_Aires",
    "translations": {}
  },
  {
    "id": 1127,
    "name": "Gualeguaychú",
    "state_id": 3654,
    "state_code": "E",
    "country_id": 11,
    "country_code": "AR",
    "latitude": "-33.00937000",
    "longitude": "-58.51722000",
    "native": null,
    "timezone": "America/Argentina/Buenos_Aires",
    "translations": {}
  },
  {
    "id": 1132,
    "name": "Hasenkamp",
    "state_id": 3654,
    "state_code": "E",
    "country_id": 11,
    "country_code": "AR",
    "latitude": "-31.51226000",
    "longitude": "-59.83545000",
    "native": null,
    "timezone": "America/Argentina/Buenos_Aires",
    "translations": {}
  },
  {
    "id": 1137,
    "name": "Hernández",
    "state_id": 3654,
    "state_code": "E",
    "country_id": 11,
    "country_code": "AR",
    "latitude": "-32.33730000",
    "longitude": "-60.02160000",
    "native": null,
    "timezone": "America/Argentina/Buenos_Aires",
    "translations": {}
  },
  {
    "id": 1139,
    "name": "Herrera",
    "state_id": 3654,
    "state_code": "E",
    "country_id": 11,
    "country_code": "AR",
    "latitude": "-32.43401000",
    "longitude": "-58.63177000",
    "native": null,
    "timezone": "America/Argentina/Buenos_Aires",
    "translations": {}
  },
  {
    "id": 1183,
    "name": "La Criolla",
    "state_id": 3654,
    "state_code": "E",
    "country_id": 11,
    "country_code": "AR",
    "latitude": "-31.26904000",
    "longitude": "-58.10558000",
    "native": null,
    "timezone": "America/Argentina/Buenos_Aires",
    "translations": {}
  },
  {
    "id": 1195,
    "name": "La Paz",
    "state_id": 3654,
    "state_code": "E",
    "country_id": 11,
    "country_code": "AR",
    "latitude": "-30.74179000",
    "longitude": "-59.64517000",
    "native": null,
    "timezone": "America/Argentina/Buenos_Aires",
    "translations": {}
  },
  {
    "id": 1214,
    "name": "Larroque",
    "state_id": 3654,
    "state_code": "E",
    "country_id": 11,
    "country_code": "AR",
    "latitude": "-33.03595000",
    "longitude": "-59.00125000",
    "native": null,
    "timezone": "America/Argentina/Buenos_Aires",
    "translations": {}
  },
  {
    "id": 1245,
    "name": "Los Charrúas",
    "state_id": 3654,
    "state_code": "E",
    "country_id": 11,
    "country_code": "AR",
    "latitude": "-31.17548000",
    "longitude": "-58.18774000",
    "native": null,
    "timezone": "America/Argentina/Buenos_Aires",
    "translations": {}
  },
  {
    "id": 1247,
    "name": "Los Conquistadores",
    "state_id": 3654,
    "state_code": "E",
    "country_id": 11,
    "country_code": "AR",
    "latitude": "-30.59080000",
    "longitude": "-58.46773000",
    "native": null,
    "timezone": "America/Argentina/Buenos_Aires",
    "translations": {}
  },
  {
    "id": 1257,
    "name": "Lucas González",
    "state_id": 3654,
    "state_code": "E",
    "country_id": 11,
    "country_code": "AR",
    "latitude": "-32.38430000",
    "longitude": "-59.53013000",
    "native": null,
    "timezone": "America/Argentina/Buenos_Aires",
    "translations": {}
  },
  {
    "id": 1261,
    "name": "Maciá",
    "state_id": 3654,
    "state_code": "E",
    "country_id": 11,
    "country_code": "AR",
    "latitude": "-32.17220000",
    "longitude": "-59.39947000",
    "native": null,
    "timezone": "America/Argentina/Buenos_Aires",
    "translations": {}
  },
  {
    "id": 1300,
    "name": "Nogoyá",
    "state_id": 3654,
    "state_code": "E",
    "country_id": 11,
    "country_code": "AR",
    "latitude": "-32.39387000",
    "longitude": "-59.78953000",
    "native": null,
    "timezone": "America/Argentina/Buenos_Aires",
    "translations": {}
  },
  {
    "id": 1309,
    "name": "Oro Verde",
    "state_id": 3654,
    "state_code": "E",
    "country_id": 11,
    "country_code": "AR",
    "latitude": "-31.82508000",
    "longitude": "-60.51749000",
    "native": null,
    "timezone": "America/Argentina/Buenos_Aires",
    "translations": {}
  },
  {
    "id": 1319,
    "name": "Paraná",
    "state_id": 3654,
    "state_code": "E",
    "country_id": 11,
    "country_code": "AR",
    "latitude": "-31.73271000",
    "longitude": "-60.52897000",
    "native": null,
    "timezone": "America/Argentina/Buenos_Aires",
    "translations": {}
  },
  {
    "id": 1332,
    "name": "Piedras Blancas",
    "state_id": 3654,
    "state_code": "E",
    "country_id": 11,
    "country_code": "AR",
    "latitude": "-31.18592000",
    "longitude": "-59.95181000",
    "native": null,
    "timezone": "America/Argentina/Buenos_Aires",
    "translations": {}
  },
  {
    "id": 1348,
    "name": "Pronunciamiento",
    "state_id": 3654,
    "state_code": "E",
    "country_id": 11,
    "country_code": "AR",
    "latitude": "-32.34480000",
    "longitude": "-58.44268000",
    "native": null,
    "timezone": "America/Argentina/Buenos_Aires",
    "translations": {}
  },
  {
    "id": 1355,
    "name": "Puerto Ibicuy",
    "state_id": 3654,
    "state_code": "E",
    "country_id": 11,
    "country_code": "AR",
    "latitude": "-33.75305000",
    "longitude": "-59.17762000",
    "native": null,
    "timezone": "America/Argentina/Buenos_Aires",
    "translations": {}
  },
  {
    "id": 1365,
    "name": "Puerto Yeruá",
    "state_id": 3654,
    "state_code": "E",
    "country_id": 11,
    "country_code": "AR",
    "latitude": "-31.53713000",
    "longitude": "-58.01527000",
    "native": null,
    "timezone": "America/Argentina/Buenos_Aires",
    "translations": {}
  },
  {
    "id": 1385,
    "name": "Rosario del Tala",
    "state_id": 3654,
    "state_code": "E",
    "country_id": 11,
    "country_code": "AR",
    "latitude": "-32.30286000",
    "longitude": "-59.14545000",
    "native": null,
    "timezone": "America/Argentina/Buenos_Aires",
    "translations": {}
  },
  {
    "id": 1413,
    "name": "San Benito",
    "state_id": 3654,
    "state_code": "E",
    "country_id": 11,
    "country_code": "AR",
    "latitude": "-31.78371000",
    "longitude": "-60.44156000",
    "native": null,
    "timezone": "America/Argentina/Buenos_Aires",
    "translations": {}
  },
  {
    "id": 1426,
    "name": "San Gustavo",
    "state_id": 3654,
    "state_code": "E",
    "country_id": 11,
    "country_code": "AR",
    "latitude": "-30.68961000",
    "longitude": "-59.39840000",
    "native": null,
    "timezone": "America/Argentina/Buenos_Aires",
    "translations": {}
  },
  {
    "id": 1430,
    "name": "San José de Feliciano",
    "state_id": 3654,
    "state_code": "E",
    "country_id": 11,
    "country_code": "AR",
    "latitude": "-30.38452000",
    "longitude": "-58.75167000",
    "native": null,
    "timezone": "America/Argentina/Buenos_Aires",
    "translations": {}
  },
  {
    "id": 1435,
    "name": "San Justo",
    "state_id": 3654,
    "state_code": "E",
    "country_id": 11,
    "country_code": "AR",
    "latitude": "-32.44654000",
    "longitude": "-58.43569000",
    "native": null,
    "timezone": "America/Argentina/Buenos_Aires",
    "translations": {}
  },
  {
    "id": 1450,
    "name": "San Salvador",
    "state_id": 3654,
    "state_code": "E",
    "country_id": 11,
    "country_code": "AR",
    "latitude": "-31.62487000",
    "longitude": "-58.50524000",
    "native": null,
    "timezone": "America/Argentina/Buenos_Aires",
    "translations": {}
  },
  {
    "id": 1453,
    "name": "Santa Ana",
    "state_id": 3654,
    "state_code": "E",
    "country_id": 11,
    "country_code": "AR",
    "latitude": "-30.90004000",
    "longitude": "-57.93162000",
    "native": null,
    "timezone": "America/Argentina/Buenos_Aires",
    "translations": {}
  },
  {
    "id": 1454,
    "name": "Santa Anita",
    "state_id": 3654,
    "state_code": "E",
    "country_id": 11,
    "country_code": "AR",
    "latitude": "-32.17476000",
    "longitude": "-58.78622000",
    "native": null,
    "timezone": "America/Argentina/Buenos_Aires",
    "translations": {}
  },
  {
    "id": 1456,
    "name": "Santa Elena",
    "state_id": 3654,
    "state_code": "E",
    "country_id": 11,
    "country_code": "AR",
    "latitude": "-30.94432000",
    "longitude": "-59.78832000",
    "native": null,
    "timezone": "America/Argentina/Buenos_Aires",
    "translations": {}
  },
  {
    "id": 1480,
    "name": "Sauce de Luna",
    "state_id": 3654,
    "state_code": "E",
    "country_id": 11,
    "country_code": "AR",
    "latitude": "-31.23794000",
    "longitude": "-59.21872000",
    "native": null,
    "timezone": "America/Argentina/Buenos_Aires",
    "translations": {}
  },
  {
    "id": 1482,
    "name": "Seguí",
    "state_id": 3654,
    "state_code": "E",
    "country_id": 11,
    "country_code": "AR",
    "latitude": "-31.95642000",
    "longitude": "-60.12488000",
    "native": null,
    "timezone": "America/Argentina/Buenos_Aires",
    "translations": {}
  },
  {
    "id": 1492,
    "name": "Tabossi",
    "state_id": 3654,
    "state_code": "E",
    "country_id": 11,
    "country_code": "AR",
    "latitude": "-31.80135000",
    "longitude": "-59.93477000",
    "native": null,
    "timezone": "America/Argentina/Buenos_Aires",
    "translations": {}
  },
  {
    "id": 1518,
    "name": "Ubajay",
    "state_id": 3654,
    "state_code": "E",
    "country_id": 11,
    "country_code": "AR",
    "latitude": "-31.79358000",
    "longitude": "-58.31350000",
    "native": null,
    "timezone": "America/Argentina/Buenos_Aires",
    "translations": {}
  },
  {
    "id": 1522,
    "name": "Urdinarrain",
    "state_id": 3654,
    "state_code": "E",
    "country_id": 11,
    "country_code": "AR",
    "latitude": "-32.68573000",
    "longitude": "-58.89323000",
    "native": null,
    "timezone": "America/Argentina/Buenos_Aires",
    "translations": {}
  },
  {
    "id": 1531,
    "name": "Viale",
    "state_id": 3654,
    "state_code": "E",
    "country_id": 11,
    "country_code": "AR",
    "latitude": "-31.86782000",
    "longitude": "-60.00722000",
    "native": null,
    "timezone": "America/Argentina/Buenos_Aires",
    "translations": {}
  },
  {
    "id": 1533,
    "name": "Victoria",
    "state_id": 3654,
    "state_code": "E",
    "country_id": 11,
    "country_code": "AR",
    "latitude": "-32.61841000",
    "longitude": "-60.15478000",
    "native": null,
    "timezone": "America/Argentina/Buenos_Aires",
    "translations": {}
  },
  {
    "id": 1584,
    "name": "Villa del Rosario",
    "state_id": 3654,
    "state_code": "E",
    "country_id": 11,
    "country_code": "AR",
    "latitude": "-30.79567000",
    "longitude": "-57.91257000",
    "native": null,
    "timezone": "America/Argentina/Buenos_Aires",
    "translations": {}
  },
  {
    "id": 1550,
    "name": "Villa Elisa",
    "state_id": 3654,
    "state_code": "E",
    "country_id": 11,
    "country_code": "AR",
    "latitude": "-32.16320000",
    "longitude": "-58.40082000",
    "native": null,
    "timezone": "America/Argentina/Buenos_Aires",
    "translations": {}
  },
  {
    "id": 1557,
    "name": "Villa Hernandarias",
    "state_id": 3654,
    "state_code": "E",
    "country_id": 11,
    "country_code": "AR",
    "latitude": "-31.23097000",
    "longitude": "-59.98464000",
    "native": null,
    "timezone": "America/Argentina/Buenos_Aires",
    "translations": {}
  },
  {
    "id": 1562,
    "name": "Villa Mantero",
    "state_id": 3654,
    "state_code": "E",
    "country_id": 11,
    "country_code": "AR",
    "latitude": "-32.39727000",
    "longitude": "-58.74596000",
    "native": null,
    "timezone": "America/Argentina/Buenos_Aires",
    "translations": {}
  },
  {
    "id": 1564,
    "name": "Villa María Grande",
    "state_id": 3654,
    "state_code": "E",
    "country_id": 11,
    "country_code": "AR",
    "latitude": "-31.66565000",
    "longitude": "-59.90182000",
    "native": null,
    "timezone": "America/Argentina/Buenos_Aires",
    "translations": {}
  },
  {
    "id": 1571,
    "name": "Villa Paranacito",
    "state_id": 3654,
    "state_code": "E",
    "country_id": 11,
    "country_code": "AR",
    "latitude": "-33.71381000",
    "longitude": "-58.65844000",
    "native": null,
    "timezone": "America/Argentina/Buenos_Aires",
    "translations": {}
  },
  {
    "id": 1579,
    "name": "Villa Urquiza",
    "state_id": 3654,
    "state_code": "E",
    "country_id": 11,
    "country_code": "AR",
    "latitude": "-31.64757000",
    "longitude": "-60.37516000",
    "native": null,
    "timezone": "America/Argentina/Buenos_Aires",
    "translations": {}
  },
  {
    "id": 1587,
    "name": "Villaguay",
    "state_id": 3654,
    "state_code": "E",
    "country_id": 11,
    "country_code": "AR",
    "latitude": "-31.86530000",
    "longitude": "-59.02689000",
    "native": null,
    "timezone": "America/Argentina/Buenos_Aires",
    "translations": {}
  }
]