[
  {
    "id": 589,
    "name": "Belas",
    "state_id": 222,
    "state_code": "LUA",
    "country_id": 7,
    "country_code": "AO",
    "latitude": "-9.06875000",
    "longitude": "13.16072000",
    "native": null,
    "timezone": "Africa/Luanda",
    "translations": {}
  },
  {
    "id": 153641,
    "name": "Cacuaco",
    "state_id": 222,
    "state_code": "LUA",
    "country_id": 7,
    "country_code": "AO",
    "latitude": "-8.82960000",
    "longitude": "13.29730000",
    "native": null,
    "timezone": "Africa/Luanda",
    "translations": {}
  },
  {
    "id": 153642,
    "name": "Cazenga",
    "state_id": 222,
    "state_code": "LUA",
    "country_id": 7,
    "country_code": "AO",
    "latitude": "-8.82860000",
    "longitude": "13.26650000",
    "native": null,
    "timezone": "Africa/Luanda",
    "translations": {}
  },
  {
    "id": 611,
    "name": "Icolo e Bengo",
    "state_id": 222,
    "state_code": "LUA",
    "country_id": 7,
    "country_code": "AO",
    "latitude": "-9.24191000",
    "longitude": "13.73549000",
    "native": null,
    "timezone": "Africa/Luanda",
    "translations": {}
  },
  {
    "id": 615,
    "name": "Luanda",
    "state_id": 222,
    "state_code": "LUA",
    "country_id": 7,
    "country_code": "AO",
    "latitude": "-8.83682000",
    "longitude": "13.23432000",
    "native": null,
    "timezone": "Africa/Luanda",
    "translations": {}
  },
  {
    "id": 153643,
    "name": "Talatona",
    "state_id": 222,
    "state_code": "LUA",
    "country_id": 7,
    "country_code": "AO",
    "latitude": "-8.89570000",
    "longitude": "13.19430000",
    "native": null,
    "timezone": "Africa/Luanda",
    "translations": {}
  },
  {
    "id": 153644,
    "name": "Viana",
    "state_id": 222,
    "state_code": "LUA",
    "country_id": 7,
    "country_code": "AO",
    "latitude": "-8.90210000",
    "longitude": "13.28610000",
    "native": null,
    "timezone": "Africa/Luanda",
    "translations": {}
  }
]