[
  {
    "id": 31316,
    "name": "Djamaa",
    "state_id": 1139,
    "state_code": "30",
    "country_id": 4,
    "country_code": "DZ",
    "latitude": "33.53388000",
    "longitude": "5.99306000",
    "native": null,
    "timezone": "Africa/Algiers",
    "translations": {}
  },
  {
    "id": 31335,
    "name": "El Hadjira",
    "state_id": 1139,
    "state_code": "30",
    "country_id": 4,
    "country_code": "DZ",
    "latitude": "32.61336000",
    "longitude": "5.51259000",
    "native": null,
    "timezone": "Africa/Algiers",
    "translations": {}
  },
  {
    "id": 31353,
    "name": "Hassi Messaoud",
    "state_id": 1139,
    "state_code": "30",
    "country_id": 4,
    "country_code": "DZ",
    "latitude": "31.68041000",
    "longitude": "6.07286000",
    "native": null,
    "timezone": "Africa/Algiers",
    "translations": {}
  },
  {
    "id": 31378,
    "name": "Megarine",
    "state_id": 1139,
    "state_code": "30",
    "country_id": 4,
    "country_code": "DZ",
    "latitude": "33.19195000",
    "longitude": "6.08695000",
    "native": null,
    "timezone": "Africa/Algiers",
    "translations": {}
  },
  {
    "id": 31396,
    "name": "Ouargla",
    "state_id": 1139,
    "state_code": "30",
    "country_id": 4,
    "country_code": "DZ",
    "latitude": "31.94932000",
    "longitude": "5.32502000",
    "native": null,
    "timezone": "Africa/Algiers",
    "translations": {}
  },
  {
    "id": 31414,
    "name": "Rouissat",
    "state_id": 1139,
    "state_code": "30",
    "country_id": 4,
    "country_code": "DZ",
    "latitude": "31.92427000",
    "longitude": "5.35018000",
    "native": null,
    "timezone": "Africa/Algiers",
    "translations": {}
  },
  {
    "id": 31425,
    "name": "Sidi Amrane",
    "state_id": 1139,
    "state_code": "30",
    "country_id": 4,
    "country_code": "DZ",
    "latitude": "33.49885000",
    "longitude": "6.00803000",
    "native": null,
    "timezone": "Africa/Algiers",
    "translations": {}
  },
  {
    "id": 31445,
    "name": "Tebesbest",
    "state_id": 1139,
    "state_code": "30",
    "country_id": 4,
    "country_code": "DZ",
    "latitude": "33.11667000",
    "longitude": "6.08333000",
    "native": null,
    "timezone": "Africa/Algiers",
    "translations": {}
  },
  {
    "id": 31462,
    "name": "Touggourt",
    "state_id": 1139,
    "state_code": "30",
    "country_id": 4,
    "country_code": "DZ",
    "latitude": "33.10527000",
    "longitude": "6.05796000",
    "native": null,
    "timezone": "Africa/Algiers",
    "translations": {}
  }
]