[
  {
    "id": 8068,
    "name": "Cahri",
    "state_id": 562,
    "state_code": "NX",
    "country_id": 16,
    "country_code": "AZ",
    "latitude": "39.34837000",
    "longitude": "45.41557000",
    "native": null,
    "timezone": "Asia/Baku",
    "translations": {}
  },
  {
    "id": 8206,
    "name": "Çalxanqala",
    "state_id": 562,
    "state_code": "NX",
    "country_id": 16,
    "country_code": "AZ",
    "latitude": "39.44167000",
    "longitude": "45.28333000",
    "native": null,
    "timezone": "Asia/Baku",
    "translations": {}
  },
  {
    "id": 8071,
    "name": "Culfa",
    "state_id": 562,
    "state_code": "NX",
    "country_id": 16,
    "country_code": "AZ",
    "latitude": "38.95397000",
    "longitude": "45.62961000",
    "native": null,
    "timezone": "Asia/Baku",
    "translations": {}
  },
  {
    "id": 8072,
    "name": "Deste",
    "state_id": 562,
    "state_code": "NX",
    "country_id": 16,
    "country_code": "AZ",
    "latitude": "38.88375000",
    "longitude": "45.90963000",
    "native": null,
    "timezone": "Asia/Baku",
    "translations": {}
  },
  {
    "id": 8091,
    "name": "Heydarabad",
    "state_id": 562,
    "state_code": "NX",
    "country_id": 16,
    "country_code": "AZ",
    "latitude": "39.72286000",
    "longitude": "44.84846000",
    "native": null,
    "timezone": "Asia/Baku",
    "translations": {}
  },
  {
    "id": 8097,
    "name": "Julfa Rayon",
    "state_id": 562,
    "state_code": "NX",
    "country_id": 16,
    "country_code": "AZ",
    "latitude": "39.16667000",
    "longitude": "45.66667000",
    "native": null,
    "timezone": "Asia/Baku",
    "translations": {}
  },
  {
    "id": 8129,
    "name": "Oğlanqala",
    "state_id": 562,
    "state_code": "NX",
    "country_id": 16,
    "country_code": "AZ",
    "latitude": "39.58694000",
    "longitude": "45.04611000",
    "native": null,
    "timezone": "Asia/Baku",
    "translations": {}
  },
  {
    "id": 8126,
    "name": "Ordubad",
    "state_id": 562,
    "state_code": "NX",
    "country_id": 16,
    "country_code": "AZ",
    "latitude": "38.90961000",
    "longitude": "46.02274000",
    "native": null,
    "timezone": "Asia/Baku",
    "translations": {}
  },
  {
    "id": 8127,
    "name": "Ordubad Rayon",
    "state_id": 562,
    "state_code": "NX",
    "country_id": 16,
    "country_code": "AZ",
    "latitude": "39.08333000",
    "longitude": "45.91667000",
    "native": null,
    "timezone": "Asia/Baku",
    "translations": {}
  },
  {
    "id": 8157,
    "name": "Qıvraq",
    "state_id": 562,
    "state_code": "NX",
    "country_id": 16,
    "country_code": "AZ",
    "latitude": "39.39939000",
    "longitude": "45.11513000",
    "native": null,
    "timezone": "Asia/Baku",
    "translations": {}
  },
  {
    "id": 8211,
    "name": "Şahbuz",
    "state_id": 562,
    "state_code": "NX",
    "country_id": 16,
    "country_code": "AZ",
    "latitude": "39.40722000",
    "longitude": "45.57389000",
    "native": null,
    "timezone": "Asia/Baku",
    "translations": {}
  },
  {
    "id": 8170,
    "name": "Sedarak",
    "state_id": 562,
    "state_code": "NX",
    "country_id": 16,
    "country_code": "AZ",
    "latitude": "39.71427000",
    "longitude": "44.88455000",
    "native": null,
    "timezone": "Asia/Baku",
    "translations": {}
  },
  {
    "id": 8172,
    "name": "Shahbuz Rayon",
    "state_id": 562,
    "state_code": "NX",
    "country_id": 16,
    "country_code": "AZ",
    "latitude": "39.41667000",
    "longitude": "45.58333000",
    "native": null,
    "timezone": "Asia/Baku",
    "translations": {}
  },
  {
    "id": 8175,
    "name": "Sharur City",
    "state_id": 562,
    "state_code": "NX",
    "country_id": 16,
    "country_code": "AZ",
    "latitude": "39.55298000",
    "longitude": "44.97993000",
    "native": null,
    "timezone": "Asia/Baku",
    "translations": {}
  },
  {
    "id": 8179,
    "name": "Sumbatan-diza",
    "state_id": 562,
    "state_code": "NX",
    "country_id": 16,
    "country_code": "AZ",
    "latitude": "38.94804000",
    "longitude": "45.82572000",
    "native": null,
    "timezone": "Asia/Baku",
    "translations": {}
  },
  {
    "id": 8181,
    "name": "Tazakend",
    "state_id": 562,
    "state_code": "NX",
    "country_id": 16,
    "country_code": "AZ",
    "latitude": "39.15459000",
    "longitude": "45.44282000",
    "native": null,
    "timezone": "Asia/Baku",
    "translations": {}
  },
  {
    "id": 8195,
    "name": "Yaycı",
    "state_id": 562,
    "state_code": "NX",
    "country_id": 16,
    "country_code": "AZ",
    "latitude": "38.94052000",
    "longitude": "45.73244000",
    "native": null,
    "timezone": "Asia/Baku",
    "translations": {}
  }
]