[
  {
    "id": 281,
    "name": "Abovyan",
    "state_id": 2033,
    "state_code": "KT",
    "country_id": 12,
    "country_code": "AM",
    "latitude": "40.27368000",
    "longitude": "44.63348000",
    "native": null,
    "timezone": "Asia/Yerevan",
    "translations": {}
  },
  {
    "id": 287,
    "name": "Aghavnadzor",
    "state_id": 2033,
    "state_code": "KT",
    "country_id": 12,
    "country_code": "AM",
    "latitude": "40.58195000",
    "longitude": "44.69581000",
    "native": null,
    "timezone": "Asia/Yerevan",
    "translations": {}
  },
  {
    "id": 295,
    "name": "Akunk’",
    "state_id": 2033,
    "state_code": "KT",
    "country_id": 12,
    "country_code": "AM",
    "latitude": "40.26672000",
    "longitude": "44.68610000",
    "native": null,
    "timezone": "Asia/Yerevan",
    "translations": {}
  },
  {
    "id": 308,
    "name": "Aramus",
    "state_id": 2033,
    "state_code": "KT",
    "country_id": 12,
    "country_code": "AM",
    "latitude": "40.25095000",
    "longitude": "44.66351000",
    "native": null,
    "timezone": "Asia/Yerevan",
    "translations": {}
  },
  {
    "id": 323,
    "name": "Argel",
    "state_id": 2033,
    "state_code": "KT",
    "country_id": 12,
    "country_code": "AM",
    "latitude": "40.37793000",
    "longitude": "44.60010000",
    "native": null,
    "timezone": "Asia/Yerevan",
    "translations": {}
  },
  {
    "id": 332,
    "name": "Arzakan",
    "state_id": 2033,
    "state_code": "KT",
    "country_id": 12,
    "country_code": "AM",
    "latitude": "40.45007000",
    "longitude": "44.60828000",
    "native": null,
    "timezone": "Asia/Yerevan",
    "translations": {}
  },
  {
    "id": 333,
    "name": "Arzni",
    "state_id": 2033,
    "state_code": "KT",
    "country_id": 12,
    "country_code": "AM",
    "latitude": "40.29730000",
    "longitude": "44.59869000",
    "native": null,
    "timezone": "Asia/Yerevan",
    "translations": {}
  },
  {
    "id": 349,
    "name": "Balahovit",
    "state_id": 2033,
    "state_code": "KT",
    "country_id": 12,
    "country_code": "AM",
    "latitude": "40.25153000",
    "longitude": "44.60828000",
    "native": null,
    "timezone": "Asia/Yerevan",
    "translations": {}
  },
  {
    "id": 357,
    "name": "Bjni",
    "state_id": 2033,
    "state_code": "KT",
    "country_id": 12,
    "country_code": "AM",
    "latitude": "40.45831000",
    "longitude": "44.65008000",
    "native": null,
    "timezone": "Asia/Yerevan",
    "translations": {}
  },
  {
    "id": 360,
    "name": "Buzhakan",
    "state_id": 2033,
    "state_code": "KT",
    "country_id": 12,
    "country_code": "AM",
    "latitude": "40.45569000",
    "longitude": "44.51947000",
    "native": null,
    "timezone": "Asia/Yerevan",
    "translations": {}
  },
  {
    "id": 363,
    "name": "Byureghavan",
    "state_id": 2033,
    "state_code": "KT",
    "country_id": 12,
    "country_code": "AM",
    "latitude": "40.31417000",
    "longitude": "44.59333000",
    "native": null,
    "timezone": "Asia/Yerevan",
    "translations": {}
  },
  {
    "id": 379,
    "name": "Dzoraghbyur",
    "state_id": 2033,
    "state_code": "KT",
    "country_id": 12,
    "country_code": "AM",
    "latitude": "40.20412000",
    "longitude": "44.64150000",
    "native": null,
    "timezone": "Asia/Yerevan",
    "translations": {}
  },
  {
    "id": 382,
    "name": "Fantan",
    "state_id": 2033,
    "state_code": "KT",
    "country_id": 12,
    "country_code": "AM",
    "latitude": "40.39447000",
    "longitude": "44.68610000",
    "native": null,
    "timezone": "Asia/Yerevan",
    "translations": {}
  },
  {
    "id": 386,
    "name": "Garrni",
    "state_id": 2033,
    "state_code": "KT",
    "country_id": 12,
    "country_code": "AM",
    "latitude": "40.11931000",
    "longitude": "44.73442000",
    "native": null,
    "timezone": "Asia/Yerevan",
    "translations": {}
  },
  {
    "id": 400,
    "name": "Goght’",
    "state_id": 2033,
    "state_code": "KT",
    "country_id": 12,
    "country_code": "AM",
    "latitude": "40.13470000",
    "longitude": "44.78332000",
    "native": null,
    "timezone": "Asia/Yerevan",
    "translations": {}
  },
  {
    "id": 417,
    "name": "Hrazdan",
    "state_id": 2033,
    "state_code": "KT",
    "country_id": 12,
    "country_code": "AM",
    "latitude": "40.49748000",
    "longitude": "44.76620000",
    "native": null,
    "timezone": "Asia/Yerevan",
    "translations": {}
  },
  {
    "id": 426,
    "name": "Kaputan",
    "state_id": 2033,
    "state_code": "KT",
    "country_id": 12,
    "country_code": "AM",
    "latitude": "40.32507000",
    "longitude": "44.70007000",
    "native": null,
    "timezone": "Asia/Yerevan",
    "translations": {}
  },
  {
    "id": 435,
    "name": "Kotayk’",
    "state_id": 2033,
    "state_code": "KT",
    "country_id": 12,
    "country_code": "AM",
    "latitude": "40.27789000",
    "longitude": "44.66388000",
    "native": null,
    "timezone": "Asia/Yerevan",
    "translations": {}
  },
  {
    "id": 442,
    "name": "Lerrnanist",
    "state_id": 2033,
    "state_code": "KT",
    "country_id": 12,
    "country_code": "AM",
    "latitude": "40.46676000",
    "longitude": "44.79249000",
    "native": null,
    "timezone": "Asia/Yerevan",
    "translations": {}
  },
  {
    "id": 459,
    "name": "Mayakovski",
    "state_id": 2033,
    "state_code": "KT",
    "country_id": 12,
    "country_code": "AM",
    "latitude": "40.25293000",
    "longitude": "44.63892000",
    "native": null,
    "timezone": "Asia/Yerevan",
    "translations": {}
  },
  {
    "id": 462,
    "name": "Meghradzor",
    "state_id": 2033,
    "state_code": "KT",
    "country_id": 12,
    "country_code": "AM",
    "latitude": "40.60611000",
    "longitude": "44.65147000",
    "native": null,
    "timezone": "Asia/Yerevan",
    "translations": {}
  },
  {
    "id": 474,
    "name": "Mrgashen",
    "state_id": 2033,
    "state_code": "KT",
    "country_id": 12,
    "country_code": "AM",
    "latitude": "40.28607000",
    "longitude": "44.54449000",
    "native": null,
    "timezone": "Asia/Yerevan",
    "translations": {}
  },
  {
    "id": 484,
    "name": "Nor Geghi",
    "state_id": 2033,
    "state_code": "KT",
    "country_id": 12,
    "country_code": "AM",
    "latitude": "40.32233000",
    "longitude": "44.58331000",
    "native": null,
    "timezone": "Asia/Yerevan",
    "translations": {}
  },
  {
    "id": 485,
    "name": "Nor Gyugh",
    "state_id": 2033,
    "state_code": "KT",
    "country_id": 12,
    "country_code": "AM",
    "latitude": "40.26672000",
    "longitude": "44.65832000",
    "native": null,
    "timezone": "Asia/Yerevan",
    "translations": {}
  },
  {
    "id": 500,
    "name": "Prroshyan",
    "state_id": 2033,
    "state_code": "KT",
    "country_id": 12,
    "country_code": "AM",
    "latitude": "40.24731000",
    "longitude": "44.41949000",
    "native": null,
    "timezone": "Asia/Yerevan",
    "translations": {}
  },
  {
    "id": 501,
    "name": "Ptghni",
    "state_id": 2033,
    "state_code": "KT",
    "country_id": 12,
    "country_code": "AM",
    "latitude": "40.25568000",
    "longitude": "44.58612000",
    "native": null,
    "timezone": "Asia/Yerevan",
    "translations": {}
  },
  {
    "id": 527,
    "name": "Solak",
    "state_id": 2033,
    "state_code": "KT",
    "country_id": 12,
    "country_code": "AM",
    "latitude": "40.46252000",
    "longitude": "44.70709000",
    "native": null,
    "timezone": "Asia/Yerevan",
    "translations": {}
  },
  {
    "id": 537,
    "name": "Tsaghkadzor",
    "state_id": 2033,
    "state_code": "KT",
    "country_id": 12,
    "country_code": "AM",
    "latitude": "40.53259000",
    "longitude": "44.72025000",
    "native": null,
    "timezone": "Asia/Yerevan",
    "translations": {}
  },
  {
    "id": 577,
    "name": "Yeghvard",
    "state_id": 2033,
    "state_code": "KT",
    "country_id": 12,
    "country_code": "AM",
    "latitude": "40.32507000",
    "longitude": "44.48608000",
    "native": null,
    "timezone": "Asia/Yerevan",
    "translations": {}
  },
  {
    "id": 583,
    "name": "Zarr",
    "state_id": 2033,
    "state_code": "KT",
    "country_id": 12,
    "country_code": "AM",
    "latitude": "40.25848000",
    "longitude": "44.73328000",
    "native": null,
    "timezone": "Asia/Yerevan",
    "translations": {}
  },
  {
    "id": 586,
    "name": "Zoravan",
    "state_id": 2033,
    "state_code": "KT",
    "country_id": 12,
    "country_code": "AM",
    "latitude": "40.35553000",
    "longitude": "44.52228000",
    "native": null,
    "timezone": "Asia/Yerevan",
    "translations": {}
  },
  {
    "id": 587,
    "name": "Zovaber",
    "state_id": 2033,
    "state_code": "KT",
    "country_id": 12,
    "country_code": "AM",
    "latitude": "40.56671000",
    "longitude": "44.79028000",
    "native": null,
    "timezone": "Asia/Yerevan",
    "translations": {}
  }
]