[
  {
    "id": 163,
    "name": "Bashkia Kavajë",
    "state_id": 615,
    "state_code": "11",
    "country_id": 3,
    "country_code": "AL",
    "latitude": "41.18127000",
    "longitude": "19.55579000",
    "native": null,
    "timezone": "Europe/Tirane",
    "translations": {}
  },
  {
    "id": 190,
    "name": "Bashkia Vorë",
    "state_id": 615,
    "state_code": "11",
    "country_id": 3,
    "country_code": "AL",
    "latitude": "41.39804000",
    "longitude": "19.67703000",
    "native": null,
    "timezone": "Europe/Tirane",
    "translations": {}
  },
  {
    "id": 207,
    "name": "Kamëz",
    "state_id": 615,
    "state_code": "11",
    "country_id": 3,
    "country_code": "AL",
    "latitude": "41.38167000",
    "longitude": "19.76028000",
    "native": null,
    "timezone": "Europe/Tirane",
    "translations": {}
  },
  {
    "id": 208,
    "name": "Kavajë",
    "state_id": 615,
    "state_code": "11",
    "country_id": 3,
    "country_code": "AL",
    "latitude": "41.18556000",
    "longitude": "19.55694000",
    "native": null,
    "timezone": "Europe/Tirane",
    "translations": {}
  },
  {
    "id": 213,
    "name": "Krrabë",
    "state_id": 615,
    "state_code": "11",
    "country_id": 3,
    "country_code": "AL",
    "latitude": "41.21556000",
    "longitude": "19.97139000",
    "native": null,
    "timezone": "Europe/Tirane",
    "translations": {}
  },
  {
    "id": 248,
    "name": "Rrethi i Kavajës",
    "state_id": 615,
    "state_code": "11",
    "country_id": 3,
    "country_code": "AL",
    "latitude": "41.16667000",
    "longitude": "19.58333000",
    "native": null,
    "timezone": "Europe/Tirane",
    "translations": {}
  },
  {
    "id": 259,
    "name": "Rrethi i Tiranës",
    "state_id": 615,
    "state_code": "11",
    "country_id": 3,
    "country_code": "AL",
    "latitude": "41.33333000",
    "longitude": "19.91667000",
    "native": null,
    "timezone": "Europe/Tirane",
    "translations": {}
  },
  {
    "id": 260,
    "name": "Rrogozhinë",
    "state_id": 615,
    "state_code": "11",
    "country_id": 3,
    "country_code": "AL",
    "latitude": "41.07639000",
    "longitude": "19.66528000",
    "native": null,
    "timezone": "Europe/Tirane",
    "translations": {}
  },
  {
    "id": 268,
    "name": "Sinaballaj",
    "state_id": 615,
    "state_code": "11",
    "country_id": 3,
    "country_code": "AL",
    "latitude": "41.06889000",
    "longitude": "19.69944000",
    "native": null,
    "timezone": "Europe/Tirane",
    "translations": {}
  },
  {
    "id": 271,
    "name": "Tirana",
    "state_id": 615,
    "state_code": "11",
    "country_id": 3,
    "country_code": "AL",
    "latitude": "41.32750000",
    "longitude": "19.81889000",
    "native": null,
    "timezone": "Europe/Tirane",
    "translations": {}
  },
  {
    "id": 277,
    "name": "Vorë",
    "state_id": 615,
    "state_code": "11",
    "country_id": 3,
    "country_code": "AL",
    "latitude": "41.39083000",
    "longitude": "19.65500000",
    "native": null,
    "timezone": "Europe/Tirane",
    "translations": {}
  }
]