[
  {
    "id": 154928,
    "name": "Faleasao",
    "state_id": 5376,
    "state_code": "03",
    "country_id": 5,
    "country_code": "AS",
    "latitude": "-14.20385490",
    "longitude": "-169.54907370",
    "native": null,
    "timezone": "Pacific/Pago_Pago",
    "translations": {}
  },
  {
    "id": 154929,
    "name": "Fitiuta",
    "state_id": 5376,
    "state_code": "03",
    "country_id": 5,
    "country_code": "AS",
    "latitude": "-14.20386340",
    "longitude": "-169.51690440",
    "native": null,
    "timezone": "Pacific/Pago_Pago",
    "translations": {}
  },
  {
    "id": 154925,
    "name": "Ofu",
    "state_id": 5376,
    "state_code": "03",
    "country_id": 5,
    "country_code": "AS",
    "latitude": "-14.17135950",
    "longitude": "-169.71939120",
    "native": null,
    "timezone": "Pacific/Pago_Pago",
    "translations": {}
  },
  {
    "id": 154926,
    "name": "Olosega",
    "state_id": 5376,
    "state_code": "03",
    "country_id": 5,
    "country_code": "AS",
    "latitude": "-14.17422270",
    "longitude": "-169.63981240",
    "native": null,
    "timezone": "Pacific/Pago_Pago",
    "translations": {}
  },
  {
    "id": 154927,
    "name": "Tau",
    "state_id": 5376,
    "state_code": "03",
    "country_id": 5,
    "country_code": "AS",
    "latitude": "-14.24215010",
    "longitude": "-169.55101650",
    "native": null,
    "timezone": "Pacific/Pago_Pago",
    "translations": {}
  }
]