[
  {
    "id": 638,
    "name": "Abra Pampa",
    "state_id": 3645,
    "state_code": "Y",
    "country_id": 11,
    "country_code": "AR",
    "latitude": "-22.72049000",
    "longitude": "-65.69697000",
    "native": null,
    "timezone": "America/Argentina/Buenos_Aires",
    "translations": {}
  },
  {
    "id": 709,
    "name": "Caimancito",
    "state_id": 3645,
    "state_code": "Y",
    "country_id": 11,
    "country_code": "AR",
    "latitude": "-23.74069000",
    "longitude": "-64.59370000",
    "native": null,
    "timezone": "America/Argentina/Buenos_Aires",
    "translations": {}
  },
  {
    "id": 713,
    "name": "Calilegua",
    "state_id": 3645,
    "state_code": "Y",
    "country_id": 11,
    "country_code": "AR",
    "latitude": "-23.77368000",
    "longitude": "-64.77002000",
    "native": null,
    "timezone": "America/Argentina/Buenos_Aires",
    "translations": {}
  },
  {
    "id": 862,
    "name": "Departamento de Cochinoca",
    "state_id": 3645,
    "state_code": "Y",
    "country_id": 11,
    "country_code": "AR",
    "latitude": "-23.00000000",
    "longitude": "-65.83333000",
    "native": null,
    "timezone": "America/Argentina/Buenos_Aires",
    "translations": {}
  },
  {
    "id": 965,
    "name": "Departamento de Rinconada",
    "state_id": 3645,
    "state_code": "Y",
    "country_id": 11,
    "country_code": "AR",
    "latitude": "-22.50000000",
    "longitude": "-66.50000000",
    "native": null,
    "timezone": "America/Argentina/Buenos_Aires",
    "translations": {}
  },
  {
    "id": 1025,
    "name": "Departamento de Tumbaya",
    "state_id": 3645,
    "state_code": "Y",
    "country_id": 11,
    "country_code": "AR",
    "latitude": "-23.71667000",
    "longitude": "-65.66667000",
    "native": null,
    "timezone": "America/Argentina/Buenos_Aires",
    "translations": {}
  },
  {
    "id": 1047,
    "name": "El Aguilar",
    "state_id": 3645,
    "state_code": "Y",
    "country_id": 11,
    "country_code": "AR",
    "latitude": "-23.21572000",
    "longitude": "-65.68005000",
    "native": null,
    "timezone": "America/Argentina/Buenos_Aires",
    "translations": {}
  },
  {
    "id": 1083,
    "name": "Fraile Pintado",
    "state_id": 3645,
    "state_code": "Y",
    "country_id": 11,
    "country_code": "AR",
    "latitude": "-23.94079000",
    "longitude": "-64.79943000",
    "native": null,
    "timezone": "America/Argentina/Buenos_Aires",
    "translations": {}
  },
  {
    "id": 1147,
    "name": "Humahuaca",
    "state_id": 3645,
    "state_code": "Y",
    "country_id": 11,
    "country_code": "AR",
    "latitude": "-23.20544000",
    "longitude": "-65.35048000",
    "native": null,
    "timezone": "America/Argentina/Buenos_Aires",
    "translations": {}
  },
  {
    "id": 1155,
    "name": "Ingenio La Esperanza",
    "state_id": 3645,
    "state_code": "Y",
    "country_id": 11,
    "country_code": "AR",
    "latitude": "-24.22554000",
    "longitude": "-64.83896000",
    "native": null,
    "timezone": "America/Argentina/Buenos_Aires",
    "translations": {}
  },
  {
    "id": 1193,
    "name": "La Mendieta",
    "state_id": 3645,
    "state_code": "Y",
    "country_id": 11,
    "country_code": "AR",
    "latitude": "-24.31187000",
    "longitude": "-64.96377000",
    "native": null,
    "timezone": "America/Argentina/Buenos_Aires",
    "translations": {}
  },
  {
    "id": 1199,
    "name": "La Quiaca",
    "state_id": 3645,
    "state_code": "Y",
    "country_id": 11,
    "country_code": "AR",
    "latitude": "-22.10236000",
    "longitude": "-65.59299000",
    "native": null,
    "timezone": "America/Argentina/Buenos_Aires",
    "translations": {}
  },
  {
    "id": 1236,
    "name": "Libertador General San Martín",
    "state_id": 3645,
    "state_code": "Y",
    "country_id": 11,
    "country_code": "AR",
    "latitude": "-23.80644000",
    "longitude": "-64.78757000",
    "native": null,
    "timezone": "America/Argentina/Buenos_Aires",
    "translations": {}
  },
  {
    "id": 1262,
    "name": "Maimará",
    "state_id": 3645,
    "state_code": "Y",
    "country_id": 11,
    "country_code": "AR",
    "latitude": "-23.62392000",
    "longitude": "-65.40797000",
    "native": null,
    "timezone": "America/Argentina/Buenos_Aires",
    "translations": {}
  },
  {
    "id": 1310,
    "name": "Palma Sola",
    "state_id": 3645,
    "state_code": "Y",
    "country_id": 11,
    "country_code": "AR",
    "latitude": "-23.97771000",
    "longitude": "-64.30311000",
    "native": null,
    "timezone": "America/Argentina/Buenos_Aires",
    "translations": {}
  },
  {
    "id": 1313,
    "name": "Palpalá",
    "state_id": 3645,
    "state_code": "Y",
    "country_id": 11,
    "country_code": "AR",
    "latitude": "-24.25647000",
    "longitude": "-65.21163000",
    "native": null,
    "timezone": "America/Argentina/Buenos_Aires",
    "translations": {}
  },
  {
    "id": 1447,
    "name": "San Pedro de Jujuy",
    "state_id": 3645,
    "state_code": "Y",
    "country_id": 11,
    "country_code": "AR",
    "latitude": "-24.23127000",
    "longitude": "-64.86614000",
    "native": null,
    "timezone": "America/Argentina/Buenos_Aires",
    "translations": {}
  },
  {
    "id": 1451,
    "name": "San Salvador de Jujuy",
    "state_id": 3645,
    "state_code": "Y",
    "country_id": 11,
    "country_code": "AR",
    "latitude": "-24.19457000",
    "longitude": "-65.29712000",
    "native": null,
    "timezone": "America/Argentina/Buenos_Aires",
    "translations": {}
  },
  {
    "id": 1455,
    "name": "Santa Clara",
    "state_id": 3645,
    "state_code": "Y",
    "country_id": 11,
    "country_code": "AR",
    "latitude": "-24.30921000",
    "longitude": "-64.66253000",
    "native": null,
    "timezone": "America/Argentina/Buenos_Aires",
    "translations": {}
  },
  {
    "id": 1503,
    "name": "Tilcara",
    "state_id": 3645,
    "state_code": "Y",
    "country_id": 11,
    "country_code": "AR",
    "latitude": "-23.57817000",
    "longitude": "-65.39516000",
    "native": null,
    "timezone": "America/Argentina/Buenos_Aires",
    "translations": {}
  },
  {
    "id": 1597,
    "name": "Yuto",
    "state_id": 3645,
    "state_code": "Y",
    "country_id": 11,
    "country_code": "AR",
    "latitude": "-23.64342000",
    "longitude": "-64.47194000",
    "native": null,
    "timezone": "America/Argentina/Buenos_Aires",
    "translations": {}
  }
]