[
  {
    "id": 637,
    "name": "28 de Noviembre",
    "state_id": 3649,
    "state_code": "Z",
    "country_id": 11,
    "country_code": "AR",
    "latitude": "-51.58390000",
    "longitude": "-72.21382000",
    "native": null,
    "timezone": "America/Argentina/Buenos_Aires",
    "translations": {}
  },
  {
    "id": 711,
    "name": "Caleta Olivia",
    "state_id": 3649,
    "state_code": "Z",
    "country_id": 11,
    "country_code": "AR",
    "latitude": "-46.43929000",
    "longitude": "-67.52814000",
    "native": null,
    "timezone": "America/Argentina/Buenos_Aires",
    "translations": {}
  },
  {
    "id": 786,
    "name": "Comandante Luis Piedra Buena",
    "state_id": 3649,
    "state_code": "Z",
    "country_id": 11,
    "country_code": "AR",
    "latitude": "-49.98513000",
    "longitude": "-68.91467000",
    "native": null,
    "timezone": "America/Argentina/Buenos_Aires",
    "translations": {}
  },
  {
    "id": 874,
    "name": "Departamento de Deseado",
    "state_id": 3649,
    "state_code": "Z",
    "country_id": 11,
    "country_code": "AR",
    "latitude": "-47.33333000",
    "longitude": "-67.83333000",
    "native": null,
    "timezone": "America/Argentina/Buenos_Aires",
    "translations": {}
  },
  {
    "id": 906,
    "name": "Departamento de Güer Aike",
    "state_id": 3649,
    "state_code": "Z",
    "country_id": 11,
    "country_code": "AR",
    "latitude": "-51.33333000",
    "longitude": "-70.33333000",
    "native": null,
    "timezone": "America/Argentina/Buenos_Aires",
    "translations": {}
  },
  {
    "id": 922,
    "name": "Departamento de Lago Argentino",
    "state_id": 3649,
    "state_code": "Z",
    "country_id": 11,
    "country_code": "AR",
    "latitude": "-49.75000000",
    "longitude": "-72.00000000",
    "native": null,
    "timezone": "America/Argentina/Buenos_Aires",
    "translations": {}
  },
  {
    "id": 935,
    "name": "Departamento de Magallanes",
    "state_id": 3649,
    "state_code": "Z",
    "country_id": 11,
    "country_code": "AR",
    "latitude": "-48.75000000",
    "longitude": "-68.50000000",
    "native": null,
    "timezone": "America/Argentina/Buenos_Aires",
    "translations": {}
  },
  {
    "id": 972,
    "name": "Departamento de Río Chico",
    "state_id": 3649,
    "state_code": "Z",
    "country_id": 11,
    "country_code": "AR",
    "latitude": "-48.25000000",
    "longitude": "-71.00000000",
    "native": null,
    "timezone": "America/Argentina/Buenos_Aires",
    "translations": {}
  },
  {
    "id": 1051,
    "name": "El Calafate",
    "state_id": 3649,
    "state_code": "Z",
    "country_id": 11,
    "country_code": "AR",
    "latitude": "-50.34075000",
    "longitude": "-72.27682000",
    "native": null,
    "timezone": "America/Argentina/Buenos_Aires",
    "translations": {}
  },
  {
    "id": 1116,
    "name": "Gobernador Gregores",
    "state_id": 3649,
    "state_code": "Z",
    "country_id": 11,
    "country_code": "AR",
    "latitude": "-48.75057000",
    "longitude": "-70.24741000",
    "native": null,
    "timezone": "America/Argentina/Buenos_Aires",
    "translations": {}
  },
  {
    "id": 1220,
    "name": "Las Heras",
    "state_id": 3649,
    "state_code": "Z",
    "country_id": 11,
    "country_code": "AR",
    "latitude": "-46.54186000",
    "longitude": "-68.93593000",
    "native": null,
    "timezone": "America/Argentina/Buenos_Aires",
    "translations": {}
  },
  {
    "id": 1244,
    "name": "Los Antiguos",
    "state_id": 3649,
    "state_code": "Z",
    "country_id": 11,
    "country_code": "AR",
    "latitude": "-46.54972000",
    "longitude": "-71.63086000",
    "native": null,
    "timezone": "America/Argentina/Buenos_Aires",
    "translations": {}
  },
  {
    "id": 1326,
    "name": "Perito Moreno",
    "state_id": 3649,
    "state_code": "Z",
    "country_id": 11,
    "country_code": "AR",
    "latitude": "-46.58995000",
    "longitude": "-70.92975000",
    "native": null,
    "timezone": "America/Argentina/Buenos_Aires",
    "translations": {}
  },
  {
    "id": 1329,
    "name": "Pico Truncado",
    "state_id": 3649,
    "state_code": "Z",
    "country_id": 11,
    "country_code": "AR",
    "latitude": "-46.79490000",
    "longitude": "-67.95731000",
    "native": null,
    "timezone": "America/Argentina/Buenos_Aires",
    "translations": {}
  },
  {
    "id": 1352,
    "name": "Puerto Deseado",
    "state_id": 3649,
    "state_code": "Z",
    "country_id": 11,
    "country_code": "AR",
    "latitude": "-47.75034000",
    "longitude": "-65.89382000",
    "native": null,
    "timezone": "America/Argentina/Buenos_Aires",
    "translations": {}
  },
  {
    "id": 1362,
    "name": "Puerto Santa Cruz",
    "state_id": 3649,
    "state_code": "Z",
    "country_id": 11,
    "country_code": "AR",
    "latitude": "-50.01910000",
    "longitude": "-68.52321000",
    "native": null,
    "timezone": "America/Argentina/Buenos_Aires",
    "translations": {}
  },
  {
    "id": 1391,
    "name": "Río Gallegos",
    "state_id": 3649,
    "state_code": "Z",
    "country_id": 11,
    "country_code": "AR",
    "latitude": "-51.62261000",
    "longitude": "-69.21813000",
    "native": null,
    "timezone": "America/Argentina/Buenos_Aires",
    "translations": {}
  },
  {
    "id": 1397,
    "name": "Río Turbio",
    "state_id": 3649,
    "state_code": "Z",
    "country_id": 11,
    "country_code": "AR",
    "latitude": "-51.53587000",
    "longitude": "-72.33673000",
    "native": null,
    "timezone": "America/Argentina/Buenos_Aires",
    "translations": {}
  },
  {
    "id": 1434,
    "name": "San Julián",
    "state_id": 3649,
    "state_code": "Z",
    "country_id": 11,
    "country_code": "AR",
    "latitude": "-49.30554000",
    "longitude": "-67.72743000",
    "native": null,
    "timezone": "America/Argentina/Buenos_Aires",
    "translations": {}
  },
  {
    "id": 1593,
    "name": "Yacimiento Río Turbio",
    "state_id": 3649,
    "state_code": "Z",
    "country_id": 11,
    "country_code": "AR",
    "latitude": "-51.57321000",
    "longitude": "-72.35080000",
    "native": null,
    "timezone": "America/Argentina/Buenos_Aires",
    "translations": {}
  }
]