[
  {
    "id": 8044,
    "name": "Arıqdam",
    "state_id": 589,
    "state_code": "GAD",
    "country_id": 16,
    "country_code": "AZ",
    "latitude": "40.59313000",
    "longitude": "45.79900000",
    "native": null,
    "timezone": "Asia/Baku",
    "translations": {}
  },
  {
    "id": 8045,
    "name": "Arıqıran",
    "state_id": 589,
    "state_code": "GAD",
    "country_id": 16,
    "country_code": "AZ",
    "latitude": "40.53971000",
    "longitude": "45.61414000",
    "native": null,
    "timezone": "Asia/Baku",
    "translations": {}
  },
  {
    "id": 8067,
    "name": "Böyük Qaramurad",
    "state_id": 589,
    "state_code": "GAD",
    "country_id": 16,
    "country_code": "AZ",
    "latitude": "40.57626000",
    "longitude": "45.63727000",
    "native": null,
    "timezone": "Asia/Baku",
    "translations": {}
  },
  {
    "id": 8105,
    "name": "Kyadabek",
    "state_id": 589,
    "state_code": "GAD",
    "country_id": 16,
    "country_code": "AZ",
    "latitude": "40.57055000",
    "longitude": "45.81229000",
    "native": null,
    "timezone": "Asia/Baku",
    "translations": {}
  },
  {
    "id": 8124,
    "name": "Novosaratovka",
    "state_id": 589,
    "state_code": "GAD",
    "country_id": 16,
    "country_code": "AZ",
    "latitude": "40.59811000",
    "longitude": "45.60079000",
    "native": null,
    "timezone": "Asia/Baku",
    "translations": {}
  }
]